type,days_for_shipping_(real),days_for_shipment_(scheduled),benefit_per_order,sales_per_customer,delivery_status,late_delivery_risk,category_id,category_name,customer_city,customer_country,customer_fname,customer_id,customer_lname,customer_segment,customer_state,customer_street,customer_zipcode,department_id,department_name,latitude,longitude,market,order_city,order_country,order_customer_id,order_date,order_id,order_item_cardprod_id,order_item_discount,order_item_discount_rate,order_item_id,order_item_product_price,order_item_profit_ratio,order_item_quantity,sales,order_item_total,order_profit_per_order,order_region,order_state,order_status,product_card_id,product_category_id,product_name,product_price,product_status,shipping_date,shipping_mode,order_year,order_month,order_day,delivery_days,order_weekday
DEBIT,2,1,23.04000092,80.0,Late delivery,1,24,Women's Apparel,Caguas,Puerto Rico,Beverly,1908,Pugh,Consumer,PR,16 Golden Robin Mews,725.0,5,Golf,18.20574379,-66.37062073,LATAM,Gómez Palacio,México,1908,2017-02-11 23:05:00,52952,502,20.0,0.200000003,132369,50.0,0.289999992,2,100.0,80.0,23.04000092,Central America,Durango,COMPLETE,502,24,Nike Men's Dri-FIT Victory Golf Polo,50.0,0,2017-02-13 23:05:00,First Class,2017,February,11,2,Saturday
PAYMENT,2,1,47.36999893,100.7799988,Late delivery,1,17,Cleats,Caguas,Puerto Rico,Ashley,236,Clark,Home Office,PR,7017 Clear Bay,725.0,4,Apparel,18.2475605,-66.02527618,Europe,Hayange,Francia,236,2015-10-08 22:43:00,19247,365,19.20000076,0.159999996,48103,59.99000168,0.469999999,2,119.9800034,100.7799988,47.36999893,Western Europe,Alsacia-Champaña-Ardenas-Lorena,PENDING_PAYMENT,365,17,Perfect Fitness Perfect Rip Deck,59.99000168,0,2015-10-10 22:43:00,First Class,2015,October,8,2,Thursday
DEBIT,1,0,15.0,149.9600067,Late delivery,1,29,Shop By Sport,El Paso,EE. UU.,Brandon,5818,Smith,Corporate,TX,7958 Thunder Apple Street,79912.0,5,Golf,31.84699822,-106.5490112,Europe,Vincennes,Francia,5818,2015-06-07 18:10:00,10808,627,49.99000168,0.25,27045,39.99000168,0.100000001,5,199.9499969,149.9600067,15.0,Western Europe,Isla de Francia,COMPLETE,627,29,Under Armour Girls' Toddler Spine Surge Runni,39.99000168,0,2015-06-08 06:10:00,Same Day,2015,June,7,0,Sunday
TRANSFER,2,1,10.85999966,23.62000084,Late delivery,1,40,Accessories,Oxnard,EE. UU.,Christopher,6992,Thompson,Corporate,CA,9375 Cozy Nook,93030.0,6,Outdoors,34.19825363,-119.1806412,Pacific Asia,Yakarta,Indonesia,6992,2016-01-11 10:51:00,25721,905,1.370000005,0.059999999,64412,24.98999977,0.460000008,1,24.98999977,23.62000084,10.85999966,Southeast Asia,Yakarta,PENDING,905,40,Team Golf Texas Longhorns Putter Grip,24.98999977,0,2016-01-13 10:51:00,First Class,2016,January,11,2,Monday
DEBIT,0,0,74.80000305,169.9900055,Shipping on time,0,48,Water Sports,Plymouth,EE. UU.,Mary,5679,Rodriguez,Home Office,MA,3702 Burning Passage,2360.0,7,Fan Shop,41.92736816,-70.7484436,LATAM,Matagalpa,Nicaragua,5679,2017-02-15 11:52:00,53194,1073,30.0,0.150000006,132910,199.9900055,0.439999998,1,199.9900055,169.9900055,74.80000305,Central America,Matagalpa,COMPLETE,1073,48,Pelican Sunstream 100 Kayak,199.9900055,0,2017-02-15 23:52:00,Same Day,2017,February,15,0,Wednesday
DEBIT,1,0,17.80999947,161.8699951,Late delivery,1,76,Women's Clothing,Caguas,Puerto Rico,Gwendolyn,17526,Guerrero,Corporate,PR,7962 Wishing Fox Harbour,725.0,4,Apparel,18.22627258,-66.03705597,Pacific Asia,Daca,Bangladés,17526,2017-12-15 19:41:00,73973,1363,53.95999908,0.25,177288,215.8200073,0.109999999,1,215.8200073,161.8699951,17.80999947,South Asia,Daca,COMPLETE,1363,76,Summer dresses,215.8200073,0,2017-12-16 07:41:00,Same Day,2017,December,15,0,Friday
DEBIT,6,4,9.0,299.9500122,Late delivery,1,17,Cleats,Caguas,Puerto Rico,Lisa,3872,Smith,Consumer,PR,1023 Rocky Hollow,725.0,4,Apparel,18.23762894,-66.37059784,LATAM,Vassouras,Brasil,3872,2015-05-27 02:35:00,10010,365,0.0,0.0,25002,59.99000168,0.029999999,5,299.9500122,299.9500122,9.0,South America,Río de Janeiro,COMPLETE,365,17,Perfect Fitness Perfect Rip Deck,59.99000168,0,2015-06-02 02:35:00,Standard Class,2015,May,27,6,Wednesday
DEBIT,6,4,15.19999981,151.9600067,Late delivery,1,29,Shop By Sport,Dallas,EE. UU.,Nancy,10448,Gilbert,Consumer,TX,6540 Hidden Dale,75227.0,5,Golf,32.77589798,-96.68588257,Africa,Shinyanga,Tanzania,10448,2016-12-04 12:30:00,48195,627,8.0,0.050000001,120523,39.99000168,0.100000001,4,159.9600067,151.9600067,15.19999981,East Africa,Shinyanga,COMPLETE,627,29,Under Armour Girls' Toddler Spine Surge Runni,39.99000168,0,2016-12-10 12:30:00,Standard Class,2016,December,4,6,Sunday
PAYMENT,6,2,22.47999954,94.47000122,Late delivery,1,3,Baseball & Softball,Chicago,EE. UU.,Amber,7978,Santos,Corporate,IL,8976 Wishing Quail Ramp,60626.0,2,Fitness,41.73286438,-87.55976105,Europe,Erlangen,Alemania,7978,2015-08-18 21:34:00,15750,37,10.5,0.100000001,39373,34.99000168,0.239999995,3,104.9700012,94.47000122,22.47999954,Western Europe,Bavaria,PENDING_PAYMENT,37,3,adidas Kids' F5 Messi FG Soccer Cleat,34.99000168,0,2015-08-24 21:34:00,Second Class,2015,August,18,6,Tuesday
DEBIT,2,1,48.0,100.0,Late delivery,1,24,Women's Apparel,Orange Park,EE. UU.,David,3042,Howell,Consumer,FL,8830 Lost View Circle,32073.0,5,Golf,30.18182945,-81.74115753,USCA,Los Angeles,Estados Unidos,3042,2016-07-25 05:19:00,39132,502,0.0,0.0,97678,50.0,0.479999989,2,100.0,100.0,48.0,West of USA ,California,COMPLETE,502,24,Nike Men's Dri-FIT Victory Golf Polo,50.0,0,2016-07-27 05:19:00,First Class,2016,July,25,2,Monday
PAYMENT,5,4,33.75999832,92.98999786,Late delivery,1,9,Cardio Equipment,Metairie,EE. UU.,Jean,6756,Smith,Home Office,LA,3915 Broad Lookout,70003.0,3,Footwear,30.0169487,-90.14716339,LATAM,Coyoacán,México,6756,2015-01-22 06:48:00,1459,191,7.0,0.07,3632,99.98999786,0.360000014,1,99.98999786,92.98999786,33.75999832,Central America,Distrito Federal,PENDING_PAYMENT,191,9,Nike Men's Free 5.0+ Running Shoe,99.98999786,0,2015-01-27 06:48:00,Standard Class,2015,January,22,5,Thursday
PAYMENT,4,4,17.14999962,245.0,Shipping on time,0,24,Women's Apparel,Caguas,Puerto Rico,Brian,12223,Baker,Home Office,PR,3663 Thunder Blossom Bank,725.0,5,Golf,18.28222275,-66.37056732,USCA,Springfield,Estados Unidos,12223,2016-04-18 08:37:00,32428,502,5.0,0.02,81094,50.0,0.07,5,250.0,245.0,17.14999962,South of  USA ,Virginia,PENDING_PAYMENT,502,24,Nike Men's Dri-FIT Victory Golf Polo,50.0,0,2016-04-22 08:37:00,Standard Class,2016,April,18,4,Monday
DEBIT,3,4,20.90999985,331.980011,Advance shipping,0,45,Fishing,Brooklyn,EE. UU.,Benjamin,6953,Smith,Home Office,NY,3307 Dusty Log Court,11226.0,7,Fan Shop,40.64759827,-73.95845795,Europe,Cuxhaven,Alemania,6953,2017-08-19 06:32:00,65852,1004,68.0,0.170000002,164566,399.980011,0.059999999,1,399.980011,331.980011,20.90999985,Western Europe,Baja Sajonia,COMPLETE,1004,45,Field & Stream Sportsman 16 Gun Fire Safe,399.980011,0,2017-08-22 06:32:00,Standard Class,2017,August,19,3,Saturday
DEBIT,2,1,36.84000015,78.37999725,Late delivery,1,29,Shop By Sport,Walnut,EE. UU.,Patrick,10601,Mayo,Consumer,CA,6748 Stony Bank,91789.0,5,Golf,33.80669785,-118.0159607,USCA,Louisville,Estados Unidos,10601,2016-08-05 21:57:00,39933,627,1.600000024,0.02,99625,39.99000168,0.469999999,2,79.98000336,78.37999725,36.84000015,South of  USA ,Kentucky,COMPLETE,627,29,Under Armour Girls' Toddler Spine Surge Runni,39.99000168,0,2016-08-07 21:57:00,First Class,2016,August,5,2,Friday
DEBIT,2,2,121.5100021,391.980011,Shipping on time,0,45,Fishing,Glendale,EE. UU.,Rebecca,2267,Tran,Consumer,AZ,1491 Foggy Glade,85308.0,7,Fan Shop,33.66019821,-112.1931229,Pacific Asia,Jaipur,India,2267,2016-03-05 19:53:00,29446,1004,8.0,0.02,73668,399.980011,0.310000002,1,399.980011,391.980011,121.5100021,South Asia,Rajastán,COMPLETE,1004,45,Field & Stream Sportsman 16 Gun Fire Safe,399.980011,0,2016-03-07 19:53:00,Second Class,2016,March,5,2,Saturday
DEBIT,6,4,-73.62999725,47.5,Late delivery,1,24,Women's Apparel,Moreno Valley,EE. UU.,Mary,5585,Wilson,Consumer,CA,6115 Lazy Embers Meadow,92553.0,5,Golf,33.92159271,-117.263176,Europe,Walsall,Reino Unido,5585,2015-07-18 10:35:00,13595,502,2.5,0.050000001,34062,50.0,-1.549999952,1,50.0,47.5,-73.62999725,Northern Europe,Inglaterra,ON_HOLD,502,24,Nike Men's Dri-FIT Victory Golf Polo,50.0,0,2015-07-24 10:35:00,Standard Class,2015,July,18,6,Saturday
DEBIT,2,1,8.579999924,18.25,Late delivery,1,41,Trade-In,Reseda,EE. UU.,Mary,9746,Brooks,Consumer,CA,7958 Harvest Grove Pike,91335.0,6,Outdoors,34.21543884,-118.5360184,Europe,Celle,Alemania,9746,2015-06-03 23:47:00,10550,917,3.74000001,0.170000002,26418,21.98999977,0.469999999,1,21.98999977,18.25,8.579999924,Western Europe,Baja Sajonia,COMPLETE,917,41,Glove It Women's Mod Oval 3-Zip Carry All Gol,21.98999977,0,2015-06-05 23:47:00,First Class,2015,June,3,2,Wednesday
PAYMENT,3,2,111.5500031,242.5,Late delivery,1,24,Women's Apparel,Caguas,Puerto Rico,Mary,1011,Smith,Corporate,PR,810 Jagged Pointe,725.0,5,Golf,18.29652023,-66.04867554,Pacific Asia,Mumbai,India,1011,2015-12-07 22:38:00,23357,502,7.5,0.029999999,58454,50.0,0.460000008,5,250.0,242.5,111.5500031,South Asia,Maharashtra,PAYMENT_REVIEW,502,24,Nike Men's Dri-FIT Victory Golf Polo,50.0,0,2015-12-10 22:38:00,Second Class,2015,December,7,3,Monday
CASH,1,0,94.44999695,196.7700043,Late delivery,1,17,Cleats,Mission Viejo,EE. UU.,Jennifer,2027,Mills,Corporate,CA,5618 Wishing Panda Line,92692.0,4,Apparel,33.64875412,-117.6374283,Pacific Asia,Chengdu,China,2027,2016-01-14 12:47:00,25932,365,43.18999863,0.180000007,64913,59.99000168,0.479999989,4,239.9600067,196.7700043,94.44999695,Eastern Asia,Sichuan,CLOSED,365,17,Perfect Fitness Perfect Rip Deck,59.99000168,0,2016-01-15 00:47:00,Same Day,2016,January,14,0,Thursday
PAYMENT,4,4,24.37000084,97.48999786,Shipping on time,0,18,Men's Footwear,Caguas,Puerto Rico,Catherine,11902,Tucker,Corporate,PR,7489 Crystal Treasure Run,725.0,4,Apparel,18.29609489,-66.37055206,LATAM,São Miguel dos Campos,Brasil,11902,2015-05-29 11:42:00,10173,403,32.5,0.25,25430,129.9900055,0.25,1,129.9900055,97.48999786,24.37000084,South America,Alagoas,PENDING_PAYMENT,403,18,Nike Men's CJ Elite 2 TD Football Cleat,129.9900055,0,2015-06-02 11:42:00,Standard Class,2015,May,29,4,Friday
PAYMENT,1,0,1.190000057,118.7799988,Late delivery,1,17,Cleats,Brooklyn,EE. UU.,Mary,12232,Moore,Corporate,NY,5735 Quaking Cider Highway,11216.0,4,Apparel,40.67913818,-73.94405365,USCA,Fayetteville,Estados Unidos,12232,2016-05-07 21:44:00,33767,365,1.200000048,0.01,84271,59.99000168,0.01,2,119.9800034,118.7799988,1.190000057,South of  USA ,Carolina del Norte,PENDING_PAYMENT,365,17,Perfect Fitness Perfect Rip Deck,59.99000168,0,2016-05-08 09:44:00,Same Day,2016,May,7,0,Saturday
DEBIT,6,4,-50.20999908,167.3699951,Late delivery,1,17,Cleats,Brooklyn,EE. UU.,Ashley,8099,Sosa,Home Office,NY,6750 Noble Pony Village,11234.0,4,Apparel,40.63061905,-73.92346191,Europe,Villefontaine,Francia,8099,2015-07-02 03:56:00,12480,365,12.60000038,0.07,31221,59.99000168,-0.300000012,3,179.9700012,167.3699951,-50.20999908,Western Europe,Auvernia-Ródano-Alpes,COMPLETE,365,17,Perfect Fitness Perfect Rip Deck,59.99000168,0,2015-07-08 03:56:00,Standard Class,2015,July,2,6,Thursday
DEBIT,6,4,15.98999977,37.18999863,Late delivery,1,29,Shop By Sport,Wyandotte,EE. UU.,Juan,6017,Wells,Home Office,MI,3089 Cotton Panda Bend,48192.0,5,Golf,42.20660782,-83.1534729,Europe,Dnipropetrovsk,Ucrania,6017,2016-09-27 22:24:00,43565,627,2.799999952,0.07,108789,39.99000168,0.430000007,1,39.99000168,37.18999863,15.98999977,Eastern Europe,Dnipropetrovsk,COMPLETE,627,29,Under Armour Girls' Toddler Spine Surge Runni,39.99000168,0,2016-10-03 22:24:00,Standard Class,2016,September,27,6,Tuesday
PAYMENT,6,2,48.04000092,145.5599976,Late delivery,1,29,Shop By Sport,Caguas,Puerto Rico,Mary,2426,Phillips,Home Office,PR,1088 Jagged Hills Nook,725.0,5,Golf,18.23387528,-66.3705368,USCA,Monroe,Estados Unidos,2426,2016-08-08 03:12:00,40085,627,14.39999962,0.090000004,100039,39.99000168,0.330000013,4,159.9600067,145.5599976,48.04000092,South of  USA ,Carolina del Norte,PENDING_PAYMENT,627,29,Under Armour Girls' Toddler Spine Surge Runni,39.99000168,0,2016-08-14 03:12:00,Second Class,2016,August,8,6,Monday
DEBIT,3,4,10.35000038,117.5699997,Advance shipping,0,29,Shop By Sport,Caguas,Puerto Rico,Mary,9673,Blair,Corporate,PR,7694 Velvet Turnabout,725.0,5,Golf,18.22789002,-66.37052155,LATAM,Petapa,Guatemala,9673,2017-05-24 13:29:00,59912,627,2.400000095,0.02,149956,39.99000168,0.090000004,3,119.9700012,117.5699997,10.35000038,Central America,Guatemala,COMPLETE,627,29,Under Armour Girls' Toddler Spine Surge Runni,39.99000168,0,2017-05-27 13:29:00,Standard Class,2017,May,24,3,Wednesday
PAYMENT,5,4,39.90000153,190.0,Late delivery,1,24,Women's Apparel,Caguas,Puerto Rico,Mary,5136,Yoder,Consumer,PR,8688 Broad Shadow Abbey,725.0,5,Golf,18.29705238,-66.37051392,LATAM,Jacobina,Brasil,5136,2015-05-30 12:34:00,10244,502,10.0,0.050000001,25619,50.0,0.209999993,4,200.0,190.0,39.90000153,South America,Bahía,PENDING_PAYMENT,502,24,Nike Men's Dri-FIT Victory Golf Polo,50.0,0,2015-06-04 12:34:00,Standard Class,2015,May,30,5,Saturday
PAYMENT,2,4,-2178.0,1320.0,Advance shipping,0,64,Computers,Glenview,EE. UU.,Hope,14229,Macdonald,Consumer,IL,141 Dewy Plaza,60025.0,10,Technology,42.06867981,-87.76311493,Europe,Schwerin,Alemania,14229,2017-10-28 16:36:00,70676,1351,180.0,0.119999997,173991,1500.0,-1.649999976,1,1500.0,1320.0,-2178.0,Western Europe,Mecklemburgo-Pomerania Occidental,PENDING_PAYMENT,1351,64,Dell Laptop,1500.0,0,2017-10-30 16:36:00,Standard Class,2017,October,28,2,Saturday
CASH,4,4,16.05999947,94.48999786,Shipping on time,0,9,Cardio Equipment,Caguas,Puerto Rico,Samuel,5337,Stephenson,Home Office,PR,1688 Crystal Leaf Vista,725.0,3,Footwear,18.27215958,-66.37052155,Pacific Asia,Estambul,Turquía,5337,2016-12-18 05:07:00,49133,191,5.5,0.059999999,122854,99.98999786,0.170000002,1,99.98999786,94.48999786,16.05999947,West Asia,Estambul,CLOSED,191,9,Nike Men's Free 5.0+ Running Shoe,99.98999786,0,2016-12-22 05:07:00,Standard Class,2016,December,18,4,Sunday
DEBIT,5,4,35.09999847,116.9899979,Late delivery,1,18,Men's Footwear,Caguas,Puerto Rico,Betty,2381,Smith,Home Office,PR,3656 Silver Cider Byway,725.0,4,Apparel,18.26327515,-66.3705368,Europe,Lowestoft,Reino Unido,2381,2017-07-31 13:02:00,64569,403,13.0,0.100000001,161397,129.9900055,0.300000012,1,129.9900055,116.9899979,35.09999847,Northern Europe,Inglaterra,COMPLETE,403,18,Nike Men's CJ Elite 2 TD Football Cleat,129.9900055,0,2017-08-05 13:02:00,Standard Class,2017,July,31,5,Monday
TRANSFER,6,4,47.84000015,103.9899979,Late delivery,1,18,Men's Footwear,La Mesa,EE. UU.,Daniel,5845,Bruce,Home Office,CA,6032 Jagged Butterfly Canyon,91941.0,4,Apparel,32.76065064,-117.0166702,LATAM,Puebla,México,5845,2017-05-31 11:12:00,60385,403,26.0,0.200000003,151121,129.9900055,0.460000008,1,129.9900055,103.9899979,47.84000015,Central America,Puebla,PENDING,403,18,Nike Men's CJ Elite 2 TD Football Cleat,129.9900055,0,2017-06-06 11:12:00,Standard Class,2017,May,31,6,Wednesday
CASH,5,4,84.66000366,176.3699951,Late delivery,1,17,Cleats,Sunnyvale,EE. UU.,Linda,11476,Smith,Home Office,CA,3886 Thunder Hill,94087.0,4,Apparel,37.34466934,-122.0356674,Europe,Toul,Francia,11476,2017-07-09 12:01:00,63059,365,3.599999905,0.02,157660,59.99000168,0.479999989,3,179.9700012,176.3699951,84.66000366,Western Europe,Alsacia-Champaña-Ardenas-Lorena,CLOSED,365,17,Perfect Fitness Perfect Rip Deck,59.99000168,0,2017-07-14 12:01:00,Standard Class,2017,July,9,5,Sunday
PAYMENT,2,1,86.38999939,179.9700012,Late delivery,1,17,Cleats,Caguas,Puerto Rico,Carol,1582,Merritt,Consumer,PR,8663 Crystal Bluff Walk,725.0,4,Apparel,18.2872467,-66.37062073,Pacific Asia,Baguio City,Filipinas,1582,2015-11-24 19:41:00,22458,365,0.0,0.0,56205,59.99000168,0.479999989,3,179.9700012,179.9700012,86.38999939,Southeast Asia,Cordillera,PENDING_PAYMENT,365,17,Perfect Fitness Perfect Rip Deck,59.99000168,0,2015-11-26 19:41:00,First Class,2015,November,24,2,Tuesday
DEBIT,2,4,-16.95000076,103.9899979,Advance shipping,0,18,Men's Footwear,Caguas,Puerto Rico,Katherine,10430,Silva,Corporate,PR,8249 Misty End,725.0,4,Apparel,18.2033329,-66.37055969,LATAM,Ciego de Ávila,Cuba,10430,2017-03-24 05:41:00,55711,403,26.0,0.200000003,139338,129.9900055,-0.159999996,1,129.9900055,103.9899979,-16.95000076,Caribbean,Ciego de Ávila,COMPLETE,403,18,Nike Men's CJ Elite 2 TD Football Cleat,129.9900055,0,2017-03-26 05:41:00,Standard Class,2017,March,24,2,Friday
DEBIT,6,4,-37.75999832,173.9900055,Late delivery,1,48,Water Sports,Jonesboro,EE. UU.,Sharon,5075,Moore,Consumer,AR,5180 Iron Brook Promenade,72401.0,7,Fan Shop,35.82093811,-90.63085938,LATAM,Coari,Brasil,5075,2015-02-28 05:31:00,3990,1073,26.0,0.129999995,9910,199.9900055,-0.219999999,1,199.9900055,173.9900055,-37.75999832,South America,Amazonas,ON_HOLD,1073,48,Pelican Sunstream 100 Kayak,199.9900055,0,2015-03-06 05:31:00,Standard Class,2015,February,28,6,Saturday
TRANSFER,2,4,21.3199997,106.5899963,Advance shipping,0,18,Men's Footwear,Alameda,EE. UU.,Mary,10681,Hatfield,Consumer,CA,1023 Merry Canyon,94501.0,4,Apparel,37.77148056,-122.2670288,Pacific Asia,Wollongong,Australia,10681,2016-02-20 09:03:00,28456,403,23.39999962,0.180000007,71221,129.9900055,0.200000003,1,129.9900055,106.5899963,21.3199997,Oceania,Nueva Gales del Sur,PENDING,403,18,Nike Men's CJ Elite 2 TD Football Cleat,129.9900055,0,2016-02-22 09:03:00,Standard Class,2016,February,20,2,Saturday
PAYMENT,3,4,13.60999966,37.5,Advance shipping,0,24,Women's Apparel,Dallas,EE. UU.,Betty,9449,Smith,Home Office,TX,2991 Iron Impasse,75216.0,5,Golf,32.71627045,-96.76869202,LATAM,San Salvador,El Salvador,9449,2017-06-03 15:13:00,60602,502,12.5,0.25,151683,50.0,0.360000014,1,50.0,37.5,13.60999966,Central America,San Salvador,PENDING_PAYMENT,502,24,Nike Men's Dri-FIT Victory Golf Polo,50.0,0,2017-06-06 15:13:00,Standard Class,2017,June,3,3,Saturday
DEBIT,2,1,38.02000046,116.9899979,Late delivery,1,18,Men's Footwear,Caguas,Puerto Rico,Martha,5226,Cook,Corporate,PR,2729 Broad By-pass,725.0,4,Apparel,18.28942108,-66.37060547,Europe,Edinburgh,Reino Unido,5226,2015-09-23 11:21:00,18187,403,13.0,0.100000001,45467,129.9900055,0.330000013,1,129.9900055,116.9899979,38.02000046,Northern Europe,Escocia,COMPLETE,403,18,Nike Men's CJ Elite 2 TD Football Cleat,129.9900055,0,2015-09-25 11:21:00,First Class,2015,September,23,2,Wednesday
CASH,4,2,121.5899963,319.980011,Late delivery,1,45,Fishing,Quincy,EE. UU.,Mary,1020,Vargas,Consumer,MA,2052 Clear Close,2169.0,7,Fan Shop,42.26028061,-70.99477387,LATAM,Barranquilla,Colombia,1020,2015-04-09 11:46:00,6748,1004,80.0,0.200000003,16869,399.980011,0.379999995,1,399.980011,319.980011,121.5899963,South America,Atlántico,CLOSED,1004,45,Field & Stream Sportsman 16 Gun Fire Safe,399.980011,0,2015-04-13 11:46:00,Second Class,2015,April,9,4,Thursday
PAYMENT,2,1,40.5699997,293.980011,Late delivery,1,43,Camping & Hiking,Philadelphia,EE. UU.,Roger,6810,Smith,Consumer,PA,7589 Silent Grove Woods,19104.0,7,Fan Shop,39.95473099,-75.20536804,Pacific Asia,Gujranwala,Pakistán,6810,2016-02-07 14:30:00,27581,957,6.0,0.02,69041,299.980011,0.140000001,1,299.980011,293.980011,40.5699997,South Asia,Punyab,PENDING_PAYMENT,957,43,Diamondback Women's Serene Classic Comfort Bi,299.980011,0,2016-02-09 14:30:00,First Class,2016,February,7,2,Sunday
CASH,2,4,58.77999878,119.9499969,Advance shipping,0,46,Indoor/Outdoor Games,Caguas,Puerto Rico,Mary,10616,Little,Corporate,PR,8786 Cotton Byway,725.0,7,Fan Shop,18.21827698,-66.37052918,LATAM,San Pedro Sula,Honduras,10616,2015-05-23 07:51:00,9751,1014,29.98999977,0.200000003,24350,49.97999954,0.49000001,3,149.9400024,119.9499969,58.77999878,Central America,Cortés,CLOSED,1014,46,O'Brien Men's Neoprene Life Vest,49.97999954,0,2015-05-25 07:51:00,Standard Class,2015,May,23,2,Saturday
DEBIT,4,2,64.0,319.980011,Late delivery,1,45,Fishing,Cary,EE. UU.,Mary,6151,Jones,Consumer,NC,586 Silver Zephyr Pike,27511.0,7,Fan Shop,35.78422928,-78.79259491,LATAM,Cienfuegos,Cuba,6151,2015-05-18 00:41:00,9388,1004,80.0,0.200000003,23423,399.980011,0.200000003,1,399.980011,319.980011,64.0,Caribbean,Cienfuegos,COMPLETE,1004,45,Field & Stream Sportsman 16 Gun Fire Safe,399.980011,0,2015-05-22 00:41:00,Second Class,2015,May,18,4,Monday
PAYMENT,2,1,13.19999981,45.5,Late delivery,1,24,Women's Apparel,Caguas,Puerto Rico,Julia,9421,Lynch,Consumer,PR,8460 Blue Lane,725.0,5,Golf,18.28970528,-66.3705368,Europe,Valence,Francia,9421,2015-08-16 12:07:00,15586,502,4.5,0.090000004,38966,50.0,0.289999992,1,50.0,45.5,13.19999981,Western Europe,Auvernia-Ródano-Alpes,PAYMENT_REVIEW,502,24,Nike Men's Dri-FIT Victory Golf Polo,50.0,0,2015-08-18 12:07:00,First Class,2015,August,16,2,Sunday
DEBIT,2,1,65.27999878,191.9900055,Late delivery,1,48,Water Sports,Caguas,Puerto Rico,Julia,9720,Berry,Home Office,PR,7947 Sunny Pathway,725.0,7,Fan Shop,18.28323174,-66.37059021,USCA,Salem,Estados Unidos,9720,2016-05-12 17:41:00,34098,1073,8.0,0.039999999,85111,199.9900055,0.340000004,1,199.9900055,191.9900055,65.27999878,West of USA ,Oregón,COMPLETE,1073,48,Pelican Sunstream 100 Kayak,199.9900055,0,2016-05-14 17:41:00,First Class,2016,May,12,2,Thursday
DEBIT,5,4,-31.59000015,145.5599976,Late delivery,1,29,Shop By Sport,Caguas,Puerto Rico,Megan,10331,Collier,Corporate,PR,9274 Foggy Edge,725.0,5,Golf,18.20951653,-66.37060547,Europe,Lviv,Ucrania,10331,2016-09-02 08:57:00,41814,627,14.39999962,0.090000004,104388,39.99000168,-0.219999999,4,159.9600067,145.5599976,-31.59000015,Eastern Europe,Lviv,COMPLETE,627,29,Under Armour Girls' Toddler Spine Surge Runni,39.99000168,0,2016-09-07 08:57:00,Standard Class,2016,September,2,5,Friday
DEBIT,6,4,31.85000038,98.0,Late delivery,1,24,Women's Apparel,Las Vegas,EE. UU.,Betty,99,Munoz,Consumer,NV,9761 Green Jetty,89123.0,5,Golf,36.19867706,115.2630768,LATAM,Querétaro,México,99,2015-04-04 11:36:00,6405,502,2.0,0.02,16033,50.0,0.330000013,2,100.0,98.0,31.85000038,Central America,Querétaro,COMPLETE,502,24,Nike Men's Dri-FIT Victory Golf Polo,50.0,0,2015-04-10 11:36:00,Standard Class,2015,April,4,6,Saturday
TRANSFER,2,4,44.08000183,146.9400024,Advance shipping,0,46,Indoor/Outdoor Games,Brooklyn,EE. UU.,Mary,7762,Roberson,Consumer,NY,9891 Golden Panda Highlands,11209.0,7,Fan Shop,40.61923981,-74.03337097,LATAM,Itapevi,Brasil,7762,2017-02-15 09:04:00,53186,1014,3.0,0.02,132892,49.97999954,0.300000012,3,149.9400024,146.9400024,44.08000183,South America,São Paulo,PROCESSING,1014,46,O'Brien Men's Neoprene Life Vest,49.97999954,0,2017-02-17 09:04:00,Standard Class,2017,February,15,2,Wednesday
TRANSFER,1,0,50.38999939,167.9799957,Shipping canceled,0,9,Cardio Equipment,Caguas,Puerto Rico,Mary,947,Henry,Corporate,PR,4320 Iron Highlands,725.0,3,Footwear,18.24757958,-66.02531433,Africa,Maseru,Lesoto,947,2016-11-09 16:13:00,46493,191,32.0,0.159999996,116241,99.98999786,0.300000012,2,199.9799957,167.9799957,50.38999939,Southern Africa,Maseru,CANCELED,191,9,Nike Men's Free 5.0+ Running Shoe,99.98999786,0,2016-11-10 04:13:00,Same Day,2016,November,9,0,Wednesday
TRANSFER,2,1,133.9100037,278.980011,Late delivery,1,43,Camping & Hiking,Caguas,Puerto Rico,Ryan,2529,Sampson,Consumer,PR,8647 Misty Vista,725.0,7,Fan Shop,18.20679283,-66.3705368,Africa,Mogadishu,Somalia,2529,2017-01-12 11:34:00,50864,957,21.0,0.07,127134,299.980011,0.479999989,1,299.980011,278.980011,133.9100037,East Africa,Benadir,PROCESSING,957,43,Diamondback Women's Serene Classic Comfort Bi,299.980011,0,2017-01-14 11:34:00,First Class,2017,January,12,2,Thursday
DEBIT,5,4,58.45000076,201.5700073,Late delivery,1,17,Cleats,New York,EE. UU.,Patricia,9452,Brown,Home Office,NY,1674 Colonial Row,10040.0,4,Apparel,40.63209152,-73.94486237,Europe,Torrevieja,España,9452,2015-10-03 22:33:00,18904,365,38.38999939,0.159999996,47279,59.99000168,0.289999992,4,239.9600067,201.5700073,58.45000076,Southern Europe,Valenciana,COMPLETE,365,17,Perfect Fitness Perfect Rip Deck,59.99000168,0,2015-10-08 22:33:00,Standard Class,2015,October,3,5,Saturday
CASH,3,2,47.77000046,97.48999786,Late delivery,1,18,Men's Footwear,Caguas,Puerto Rico,Carolyn,4720,Smith,Consumer,PR,1217 Indian Embers Corner,725.0,4,Apparel,18.24131393,-66.37059784,Pacific Asia,Duzce,Turquía,4720,2016-10-29 11:51:00,45727,403,32.5,0.25,114297,129.9900055,0.49000001,1,129.9900055,97.48999786,47.77000046,West Asia,Düzce,CLOSED,403,18,Nike Men's CJ Elite 2 TD Football Cleat,129.9900055,0,2016-11-01 11:51:00,Second Class,2016,October,29,3,Saturday
PAYMENT,5,2,131.1399994,387.980011,Late delivery,1,45,Fishing,Caguas,Puerto Rico,Mary,5813,Brock,Home Office,PR,3668 Sunny Wharf,725.0,7,Fan Shop,18.26782417,-66.37055969,Africa,Rabat,Marruecos,5813,2017-01-07 08:57:00,50514,1004,12.0,0.029999999,126224,399.980011,0.340000004,1,399.980011,387.980011,131.1399994,North Africa,Rabat-Salé-Zemur-Zaer,PAYMENT_REVIEW,1004,45,Field & Stream Sportsman 16 Gun Fire Safe,399.980011,0,2017-01-12 08:57:00,Second Class,2017,January,7,5,Saturday
TRANSFER,4,2,15.73999977,39.34999847,Late delivery,1,37,Electronics,La Mirada,EE. UU.,Emma,8292,Smith,Consumer,CA,5767 High Carrefour,90638.0,6,Outdoors,34.09380341,-118.3155136,Pacific Asia,Rajkot,India,8292,2016-01-02 20:51:00,25133,818,8.640000343,0.180000007,62974,47.99000168,0.400000006,1,47.99000168,39.34999847,15.73999977,South Asia,Guyarat,PROCESSING,818,37,Titleist Pro V1x Golf Balls,47.99000168,0,2016-01-06 20:51:00,Second Class,2016,January,2,4,Saturday
TRANSFER,1,0,189.9799957,474.9500122,Late delivery,1,9,Cardio Equipment,Chicago,EE. UU.,Mary,11025,Smith,Consumer,IL,414 Crystal Plaza,60645.0,3,Footwear,42.0125885,-87.68591309,USCA,Atlanta,Estados Unidos,11025,2016-05-30 12:04:00,35315,191,25.0,0.050000001,88198,99.98999786,0.400000006,5,499.9500122,474.9500122,189.9799957,South of  USA ,Georgia,PENDING,191,9,Nike Men's Free 5.0+ Running Shoe,99.98999786,0,2016-05-31 00:04:00,Same Day,2016,May,30,0,Monday
CASH,6,2,96.04000092,195.9900055,Late delivery,1,48,Water Sports,Union,EE. UU.,Mary,150,Smith,Corporate,NJ,5593 Indian Trail,7083.0,7,Fan Shop,33.68896103,-117.9957428,Europe,Berlín,Alemania,150,2015-06-05 00:18:00,10620,1073,4.0,0.02,26599,199.9900055,0.49000001,1,199.9900055,195.9900055,96.04000092,Western Europe,Berlín,CLOSED,1073,48,Pelican Sunstream 100 Kayak,199.9900055,0,2015-06-11 00:18:00,Second Class,2015,June,5,6,Friday
DEBIT,3,4,37.02999878,118.2900009,Advance shipping,0,18,Men's Footwear,Las Vegas,EE. UU.,Arthur,1768,Smith,Consumer,NV,4661 Iron Landing,89119.0,4,Apparel,36.08593369,-115.1726379,Africa,Kano,Nigeria,1768,2016-09-09 03:09:00,42277,403,11.69999981,0.090000004,105550,129.9900055,0.310000002,1,129.9900055,118.2900009,37.02999878,West Africa,Kano,COMPLETE,403,18,Nike Men's CJ Elite 2 TD Football Cleat,129.9900055,0,2016-09-12 03:09:00,Standard Class,2016,September,9,3,Friday
PAYMENT,5,4,35.70999908,75.98000336,Late delivery,1,29,Shop By Sport,Lancaster,EE. UU.,Mary,6178,Smith,Corporate,SC,6692 Lazy Route,29720.0,5,Golf,34.91044235,-80.80744171,Europe,Viena,Austria,6178,2015-07-31 17:02:00,14504,627,4.0,0.050000001,36280,39.99000168,0.469999999,2,79.98000336,75.98000336,35.70999908,Western Europe,Viena,PENDING_PAYMENT,627,29,Under Armour Girls' Toddler Spine Surge Runni,39.99000168,0,2015-08-05 17:02:00,Standard Class,2015,July,31,5,Friday
DEBIT,5,4,-13.76000023,319.980011,Late delivery,1,45,Fishing,Caguas,Puerto Rico,Mary,6268,Summers,Home Office,PR,1607 Hazy Butterfly Swale,725.0,7,Fan Shop,18.25079155,-66.37054443,Europe,Montpellier,Francia,6268,2015-07-09 09:01:00,12974,1004,80.0,0.200000003,32446,399.980011,-0.039999999,1,399.980011,319.980011,-13.76000023,Western Europe,Languedoc-Rosellón-Mediodía-Pirineos,COMPLETE,1004,45,Field & Stream Sportsman 16 Gun Fire Safe,399.980011,0,2015-07-14 09:01:00,Standard Class,2015,July,9,5,Thursday
DEBIT,4,4,106.4599991,272.9700012,Shipping on time,0,9,Cardio Equipment,Huntington Beach,EE. UU.,Julie,6618,Hamilton,Consumer,CA,2407 Foggy Acres,92647.0,3,Footwear,33.67925263,-117.9953003,Pacific Asia,Singapur,Singapur,6618,2015-11-03 10:25:00,20993,191,27.0,0.090000004,52468,99.98999786,0.389999986,3,299.9700012,272.9700012,106.4599991,Southeast Asia,Singapur,COMPLETE,191,9,Nike Men's Free 5.0+ Running Shoe,99.98999786,0,2015-11-07 10:25:00,Standard Class,2015,November,3,4,Tuesday
PAYMENT,4,4,-134.9799957,224.9600067,Shipping on time,0,17,Cleats,Sandusky,EE. UU.,Henry,9043,Norris,Consumer,OH,4905 Velvet Canyon,44870.0,4,Apparel,41.44783402,-82.8425293,Pacific Asia,Tabuk,Arabia Saudí,9043,2016-09-02 20:52:00,41848,365,74.98999786,0.25,104457,59.99000168,-0.600000024,5,299.9500122,224.9600067,-134.9799957,West Asia,Tabuk,PENDING_PAYMENT,365,17,Perfect Fitness Perfect Rip Deck,59.99000168,0,2016-09-06 20:52:00,Standard Class,2016,September,2,4,Friday
DEBIT,6,2,-83.76999664,351.980011,Late delivery,1,45,Fishing,Washington,EE. UU.,Harold,697,Pratt,Consumer,DC,4352 Hazy Hickory Road,20019.0,7,Fan Shop,38.91199112,77.09209442,Europe,Toledo,España,697,2017-07-02 15:42:00,62590,1004,48.0,0.119999997,156452,399.980011,-0.239999995,1,399.980011,351.980011,-83.76999664,Southern Europe,Castilla-La Mancha,COMPLETE,1004,45,Field & Stream Sportsman 16 Gun Fire Safe,399.980011,0,2017-07-08 15:42:00,Second Class,2017,July,2,6,Sunday
PAYMENT,3,4,10.92000008,109.1699982,Advance shipping,0,29,Shop By Sport,Apopka,EE. UU.,Cynthia,6542,Moran,Consumer,FL,9297 Easy Wood,32703.0,5,Golf,28.63298988,-81.45418549,Europe,London,Reino Unido,6542,2017-07-06 18:30:00,62872,627,10.80000019,0.090000004,157204,39.99000168,0.100000001,3,119.9700012,109.1699982,10.92000008,Northern Europe,Inglaterra,PENDING_PAYMENT,627,29,Under Armour Girls' Toddler Spine Surge Runni,39.99000168,0,2017-07-09 18:30:00,Standard Class,2017,July,6,3,Thursday
DEBIT,2,1,49.72000122,110.4899979,Late delivery,1,18,Men's Footwear,New Braunfels,EE. UU.,Nicholas,5307,Herman,Home Office,TX,8314 Rocky Pines,78130.0,4,Apparel,29.73966026,-98.10388947,Pacific Asia,Tiflis,Georgia,5307,2016-12-28 10:01:00,49832,403,19.5,0.150000006,124586,129.9900055,0.449999988,1,129.9900055,110.4899979,49.72000122,West Asia,Tiflis,COMPLETE,403,18,Nike Men's CJ Elite 2 TD Football Cleat,129.9900055,0,2016-12-30 10:01:00,First Class,2016,December,28,2,Wednesday
DEBIT,5,4,11.60000038,40.0,Late delivery,1,24,Women's Apparel,Caguas,Puerto Rico,Diana,927,Smith,Consumer,PR,9079 Dewy Deer Harbour,725.0,5,Golf,18.24758339,-66.02545166,LATAM,Tegucigalpa,Honduras,927,2015-05-26 13:59:00,9974,502,10.0,0.200000003,24917,50.0,0.289999992,1,50.0,40.0,11.60000038,Central America,Francisco Morazán,COMPLETE,502,24,Nike Men's Dri-FIT Victory Golf Polo,50.0,0,2015-05-31 13:59:00,Standard Class,2015,May,26,5,Tuesday
DEBIT,4,4,34.93999863,124.7900009,Shipping on time,0,18,Men's Footwear,Caguas,Puerto Rico,Brittany,155,Juarez,Consumer,PR,1809 Lost Pine Ledge,725.0,4,Apparel,18.24755478,-66.02526856,Europe,Dresden,Alemania,155,2015-06-06 10:38:00,10718,403,5.199999809,0.039999999,26822,129.9900055,0.280000001,1,129.9900055,124.7900009,34.93999863,Western Europe,Sajonia,COMPLETE,403,18,Nike Men's CJ Elite 2 TD Football Cleat,129.9900055,0,2015-06-10 10:38:00,Standard Class,2015,June,6,4,Saturday
CASH,6,4,49.91999817,103.9899979,Late delivery,1,18,Men's Footwear,Caguas,Puerto Rico,Charles,3079,Diaz,Consumer,PR,9581 Burning Horse Centre,725.0,4,Apparel,18.20683861,-66.37060547,Pacific Asia,Gold Coast,Australia,3079,2016-04-01 10:55:00,31270,403,26.0,0.200000003,78156,129.9900055,0.479999989,1,129.9900055,103.9899979,49.91999817,Oceania,Queensland,CLOSED,403,18,Nike Men's CJ Elite 2 TD Football Cleat,129.9900055,0,2016-04-07 10:55:00,Standard Class,2016,April,1,6,Friday
DEBIT,4,4,74.25,296.980011,Shipping on time,0,43,Camping & Hiking,Elmhurst,EE. UU.,Mary,3326,Smith,Corporate,IL,1269 Tawny Key,60126.0,7,Fan Shop,41.90410233,-87.93784332,LATAM,San Pedro Sula,Honduras,3326,2015-05-23 06:48:00,9748,957,3.0,0.01,24342,299.980011,0.25,1,299.980011,296.980011,74.25,Central America,Cortés,COMPLETE,957,43,Diamondback Women's Serene Classic Comfort Bi,299.980011,0,2015-05-27 06:48:00,Standard Class,2015,May,23,4,Saturday
DEBIT,6,2,46.84999847,203.6999969,Late delivery,1,26,Girls' Apparel,Glen Burnie,EE. UU.,Mary,9078,Smith,Home Office,MD,7694 Umber Terrace,21061.0,5,Golf,39.15604782,-76.6170044,LATAM,Colón,Panamá,9078,2015-02-01 21:09:00,2185,565,6.300000191,0.029999999,5473,70.0,0.230000004,3,210.0,203.6999969,46.84999847,Central America,Colón,COMPLETE,565,26,adidas Youth Germany Black/Red Away Match Soc,70.0,0,2015-02-07 21:09:00,Second Class,2015,February,1,6,Sunday
PAYMENT,4,4,35.99000168,119.9800034,Shipping on time,0,17,Cleats,Caguas,Puerto Rico,Shawn,9243,Gross,Home Office,PR,1098 Fallen By-pass,725.0,4,Apparel,18.26729584,-66.3705368,LATAM,Santo Domingo,República Dominicana,9243,2015-05-16 17:09:00,9298,365,0.0,0.0,23195,59.99000168,0.300000012,2,119.9800034,119.9800034,35.99000168,Caribbean,Santo Domingo,PENDING_PAYMENT,365,17,Perfect Fitness Perfect Rip Deck,59.99000168,0,2015-05-20 17:09:00,Standard Class,2015,May,16,4,Saturday
DEBIT,4,4,33.25,95.0,Shipping on time,0,24,Women's Apparel,Seattle,EE. UU.,Helen,2526,Mcknight,Corporate,WA,9865 Blue Edge,98115.0,5,Golf,47.70080566,-122.3029633,Africa,Lagos,Nigeria,2526,2017-01-12 12:58:00,50868,502,5.0,0.050000001,127143,50.0,0.349999994,2,100.0,95.0,33.25,West Africa,Lagos,COMPLETE,502,24,Nike Men's Dri-FIT Victory Golf Polo,50.0,0,2017-01-16 12:58:00,Standard Class,2017,January,12,4,Thursday
DEBIT,1,0,25.5,339.980011,Late delivery,1,45,Fishing,Chicago,EE. UU.,Marie,5755,Shah,Consumer,IL,7339 Cozy Ledge,60643.0,7,Fan Shop,41.12160111,-87.73418427,USCA,Philadelphia,Estados Unidos,5755,2016-04-13 19:18:00,32116,1004,60.0,0.150000006,80314,399.980011,0.079999998,1,399.980011,339.980011,25.5,East of USA,Pensilvania,COMPLETE,1004,45,Field & Stream Sportsman 16 Gun Fire Safe,399.980011,0,2016-04-14 07:18:00,Same Day,2016,April,13,0,Wednesday
CASH,2,1,34.18999863,113.9800034,Late delivery,1,17,Cleats,Merced,EE. UU.,Mary,1034,Smith,Consumer,CA,8355 Lazy Anchor Pines,95340.0,4,Apparel,37.41038895,-120.7961731,Europe,Zwolle,Países Bajos,1034,2017-09-25 10:51:00,68399,365,6.0,0.050000001,171005,59.99000168,0.300000012,2,119.9800034,113.9800034,34.18999863,Western Europe,Overijssel,CLOSED,365,17,Perfect Fitness Perfect Rip Deck,59.99000168,0,2017-09-27 10:51:00,First Class,2017,September,25,2,Monday
DEBIT,3,2,105.4899979,293.0400085,Late delivery,1,69,Health and Beauty,Caguas,Puerto Rico,Ayanna,18810,Alford,Consumer,PR,1112 Quaking Panda Way,725.0,12,Health and Beauty ,18.21434784,-66.03704834,Pacific Asia,Wuhan,China,18810,2018-01-03 13:31:00,75257,1356,0.0,0.0,178572,293.0400085,0.360000014,1,293.0400085,293.0400085,105.4899979,Eastern Asia,Hubei,COMPLETE,1356,69,First aid kit,293.0400085,0,2018-01-06 13:31:00,Second Class,2018,January,3,3,Wednesday
DEBIT,2,4,-60.72999954,79.18000031,Advance shipping,0,29,Shop By Sport,Yonkers,EE. UU.,Jennifer,11103,Bray,Consumer,NY,2968 Iron Butterfly Close,10701.0,5,Golf,40.93531036,-73.8874588,Europe,Lyon,Francia,11103,2015-10-04 08:01:00,18931,627,0.800000012,0.01,47343,39.99000168,-0.769999981,2,79.98000336,79.18000031,-60.72999954,Western Europe,Auvernia-Ródano-Alpes,ON_HOLD,627,29,Under Armour Girls' Toddler Spine Surge Runni,39.99000168,0,2015-10-06 08:01:00,Standard Class,2015,October,4,2,Sunday
TRANSFER,2,2,166.0500031,332.1000061,Shipping canceled,0,63,Children's Clothing,Brooklyn,EE. UU.,Leila,13944,Joyner,Consumer,NY,3495 Wishing Landing,11220.0,4,Apparel,40.6416893,-74.01692963,Europe,Valencia,España,13944,2017-10-24 12:45:00,70391,1350,25.0,0.07,173706,357.1000061,0.5,1,357.1000061,332.1000061,166.0500031,Southern Europe,Valenciana,SUSPECTED_FRAUD,1350,63,Children's heaters,357.1000061,0,2017-10-26 12:45:00,Second Class,2017,October,24,2,Tuesday
PAYMENT,6,2,21.60000038,215.9600067,Late delivery,1,17,Cleats,Caguas,Puerto Rico,Mary,2976,Rivers,Consumer,PR,7254 Bright Pines,725.0,4,Apparel,18.23524284,-66.37050629,Europe,Barcelona,España,2976,2017-07-01 22:11:00,62540,365,24.0,0.100000001,156297,59.99000168,0.100000001,4,239.9600067,215.9600067,21.60000038,Southern Europe,Cataluña,PENDING_PAYMENT,365,17,Perfect Fitness Perfect Rip Deck,59.99000168,0,2017-07-07 22:11:00,Second Class,2017,July,1,6,Saturday
DEBIT,6,4,68.59999847,188.9900055,Late delivery,1,48,Water Sports,Caguas,Puerto Rico,Timothy,642,Vasquez,Consumer,PR,5319 Blue Leaf Moor,725.0,7,Fan Shop,18.35914803,-66.07791901,LATAM,Santo Domingo,República Dominicana,642,2017-01-29 19:04:00,52050,1073,11.0,0.059999999,130050,199.9900055,0.360000014,1,199.9900055,188.9900055,68.59999847,Caribbean,Santo Domingo,COMPLETE,1073,48,Pelican Sunstream 100 Kayak,199.9900055,0,2017-02-04 19:04:00,Standard Class,2017,January,29,6,Sunday
PAYMENT,4,4,24.01000023,49.0,Shipping on time,0,24,Women's Apparel,Caguas,Puerto Rico,Mary,11395,Schmidt,Home Office,PR,8804 Fallen Cider Ridge,725.0,5,Golf,18.22920799,-66.37052918,Europe,Zwickau,Alemania,11395,2015-10-14 08:42:00,19618,502,1.0,0.02,49045,50.0,0.49000001,1,50.0,49.0,24.01000023,Western Europe,Sajonia,PENDING_PAYMENT,502,24,Nike Men's Dri-FIT Victory Golf Polo,50.0,0,2015-10-18 08:42:00,Standard Class,2015,October,14,4,Wednesday
TRANSFER,6,4,12.73999977,127.3899994,Late delivery,1,18,Men's Footwear,Miami,EE. UU.,Timothy,3802,Smith,Consumer,FL,9505 Fallen River Cove,33157.0,4,Apparel,25.58456993,-80.37361145,Pacific Asia,Basra,Irak,3802,2016-11-25 14:47:00,47585,403,2.599999905,0.02,118967,129.9900055,0.100000001,1,129.9900055,127.3899994,12.73999977,West Asia,Basora,PENDING,403,18,Nike Men's CJ Elite 2 TD Football Cleat,129.9900055,0,2016-12-01 14:47:00,Standard Class,2016,November,25,6,Friday
PAYMENT,2,2,38.45000076,122.8399963,Shipping on time,0,18,Men's Footwear,Caguas,Puerto Rico,Mary,1384,Mullins,Corporate,PR,191 Quaking Embers Bay,725.0,4,Apparel,18.2203598,-66.37060547,Europe,Palermo,Italia,1384,2015-09-01 18:45:00,16701,403,7.150000095,0.059999999,41729,129.9900055,0.310000002,1,129.9900055,122.8399963,38.45000076,Southern Europe,Sicilia,PENDING_PAYMENT,403,18,Nike Men's CJ Elite 2 TD Football Cleat,129.9900055,0,2015-09-03 18:45:00,Second Class,2015,September,1,2,Tuesday
TRANSFER,2,1,28.47999954,90.98999786,Late delivery,1,9,Cardio Equipment,Manchester,EE. UU.,Ashley,9405,Smith,Consumer,CT,5712 Burning Nook,6040.0,3,Footwear,42.93608093,-85.52552033,Pacific Asia,Donghai,China,9405,2016-03-13 00:15:00,29938,191,9.0,0.090000004,74885,99.98999786,0.310000002,1,99.98999786,90.98999786,28.47999954,Eastern Asia,Guangdong,PENDING,191,9,Nike Men's Free 5.0+ Running Shoe,99.98999786,0,2016-03-15 00:15:00,First Class,2016,March,13,2,Sunday
DEBIT,3,4,44.13000107,126.0899963,Advance shipping,0,18,Men's Footwear,Winter Park,EE. UU.,Laura,10746,Smith,Corporate,FL,3702 Noble Plaza,32792.0,4,Apparel,28.60344505,-81.31519318,Africa,Kano,Nigeria,10746,2016-08-27 05:06:00,41392,403,3.900000095,0.029999999,103311,129.9900055,0.349999994,1,129.9900055,126.0899963,44.13000107,West Africa,Kano,COMPLETE,403,18,Nike Men's CJ Elite 2 TD Football Cleat,129.9900055,0,2016-08-30 05:06:00,Standard Class,2016,August,27,3,Saturday
DEBIT,2,1,-80.04000092,109.1900024,Late delivery,1,18,Men's Footwear,Caguas,Puerto Rico,Mary,1477,Smith,Home Office,PR,5299 Indian Treasure Mount,725.0,4,Apparel,18.2769146,-66.37055206,Pacific Asia,Bangkok,Tailandia,1477,2016-01-07 21:01:00,25476,403,20.79999924,0.159999996,63822,129.9900055,-0.730000019,1,129.9900055,109.1900024,-80.04000092,Southeast Asia,Bangkok,COMPLETE,403,18,Nike Men's CJ Elite 2 TD Football Cleat,129.9900055,0,2016-01-09 21:01:00,First Class,2016,January,7,2,Thursday
PAYMENT,6,4,23.76000023,48.47999954,Late delivery,1,46,Indoor/Outdoor Games,Caguas,Puerto Rico,Michael,9353,Scott,Home Office,PR,5703 Tawny Creek Townline,725.0,7,Fan Shop,18.2988205,-66.37059784,USCA,Longview,Estados Unidos,9353,2016-07-01 13:04:00,37510,1014,1.5,0.029999999,93623,49.97999954,0.49000001,1,49.97999954,48.47999954,23.76000023,West of USA ,Washington,PENDING_PAYMENT,1014,46,O'Brien Men's Neoprene Life Vest,49.97999954,0,2016-07-07 13:04:00,Standard Class,2016,July,1,6,Friday
TRANSFER,3,4,12.30000019,163.9900055,Advance shipping,0,48,Water Sports,Caguas,Puerto Rico,Lauren,3307,Holmes,Consumer,PR,5810 Sleepy Hill,725.0,7,Fan Shop,18.29982376,-66.37056732,Africa,Khouribga,Marruecos,3307,2016-11-04 04:29:00,46117,1073,36.0,0.180000007,115295,199.9900055,0.079999998,1,199.9900055,163.9900055,12.30000019,North Africa,Chauía-Uardiga,PENDING,1073,48,Pelican Sunstream 100 Kayak,199.9900055,0,2016-11-07 04:29:00,Standard Class,2016,November,4,3,Friday
DEBIT,6,4,-34.88000107,139.5,Late delivery,1,24,Women's Apparel,Orlando,EE. UU.,Mary,6244,Smith,Home Office,FL,4543 Cinder Link,32822.0,5,Golf,28.51626968,-81.30583191,LATAM,Mexico City,México,6244,2015-05-23 02:15:00,9735,502,10.5,0.07,24318,50.0,-0.25,3,150.0,139.5,-34.88000107,Central America,Distrito Federal,COMPLETE,502,24,Nike Men's Dri-FIT Victory Golf Polo,50.0,0,2015-05-29 02:15:00,Standard Class,2015,May,23,6,Saturday
PAYMENT,0,0,24.70000076,129.9900055,Shipping on time,0,18,Men's Footwear,Aurora,EE. UU.,Mary,1221,Smith,Corporate,CO,830 Hidden Lake Quay,80011.0,4,Apparel,39.74662018,-104.8164368,Africa,Accra,Ghana,1221,2016-10-06 08:33:00,44142,403,0.0,0.0,110233,129.9900055,0.189999998,1,129.9900055,129.9900055,24.70000076,West Africa,Gran Accra,PENDING_PAYMENT,403,18,Nike Men's CJ Elite 2 TD Football Cleat,129.9900055,0,2016-10-06 20:33:00,Same Day,2016,October,6,0,Thursday
DEBIT,3,2,20.37999916,78.37999725,Late delivery,1,29,Shop By Sport,Westland,EE. UU.,Mary,12054,Smith,Corporate,MI,3064 Colonial Cove,48185.0,5,Golf,42.33019257,-83.39046478,LATAM,Quito,Ecuador,12054,2015-01-26 23:57:00,1782,627,1.600000024,0.02,4447,39.99000168,0.25999999,2,79.98000336,78.37999725,20.37999916,South America,Pichincha,COMPLETE,627,29,Under Armour Girls' Toddler Spine Surge Runni,39.99000168,0,2015-01-29 23:57:00,Second Class,2015,January,26,3,Monday
PAYMENT,6,4,83.51999664,173.9900055,Late delivery,1,48,Water Sports,Caguas,Puerto Rico,Betty,10260,Smith,Corporate,PR,5633 Harvest Turnabout,725.0,7,Fan Shop,18.20678139,-66.37052155,Pacific Asia,Semarang,Indonesia,10260,2015-12-24 06:19:00,24475,1073,26.0,0.129999995,61253,199.9900055,0.479999989,1,199.9900055,173.9900055,83.51999664,Southeast Asia,Java Central,PENDING_PAYMENT,1073,48,Pelican Sunstream 100 Kayak,199.9900055,0,2015-12-30 06:19:00,Standard Class,2015,December,24,6,Thursday
TRANSFER,0,0,-201.0899963,118.2900009,Shipping on time,0,18,Men's Footwear,Caguas,Puerto Rico,Pamela,368,Flores,Corporate,PR,8248 Blue Corners,725.0,4,Apparel,18.24757767,-66.02526856,Pacific Asia,Estambul,Turquía,368,2016-10-04 03:39:00,43991,403,11.69999981,0.090000004,109879,129.9900055,-1.700000048,1,129.9900055,118.2900009,-201.0899963,West Asia,Estambul,PROCESSING,403,18,Nike Men's CJ Elite 2 TD Football Cleat,129.9900055,0,2016-10-04 15:39:00,Same Day,2016,October,4,0,Tuesday
CASH,6,4,21.37000084,142.4400024,Late delivery,1,46,Indoor/Outdoor Games,Sandusky,EE. UU.,Lisa,7416,Rivera,Corporate,OH,3922 Easy Manor,44870.0,7,Fan Shop,41.44783402,-82.8425293,LATAM,Buenos Aires,Argentina,7416,2015-03-08 07:57:00,4545,1014,7.5,0.050000001,11374,49.97999954,0.150000006,3,149.9400024,142.4400024,21.37000084,South America,Buenos Aires,CLOSED,1014,46,O'Brien Men's Neoprene Life Vest,49.97999954,0,2015-03-14 07:57:00,Standard Class,2015,March,8,6,Sunday
DEBIT,3,4,31.79000092,281.3200073,Advance shipping,0,69,Health and Beauty,Bronx,EE. UU.,Martena,15715,Howard,Corporate,NY,5079 Velvet Hickory By-pass,10468.0,12,Health and Beauty ,40.86552811,-73.90142822,Pacific Asia,Palu,Indonesia,15715,2017-11-19 09:12:00,72162,1356,11.72000027,0.039999999,175477,293.0400085,0.109999999,1,293.0400085,281.3200073,31.79000092,Southeast Asia,Célebes Central,COMPLETE,1356,69,First aid kit,293.0400085,0,2017-11-22 09:12:00,Standard Class,2017,November,19,3,Sunday
PAYMENT,6,4,14.25,189.9900055,Late delivery,1,48,Water Sports,Hollywood,EE. UU.,Bryan,3701,Foster,Consumer,FL,5406 Round Bear Parkway,33021.0,7,Fan Shop,26.01161957,-80.17346954,USCA,Wichita,Estados Unidos,3701,2016-06-19 20:47:00,36710,1073,10.0,0.050000001,91615,199.9900055,0.079999998,1,199.9900055,189.9900055,14.25,US Center ,Kansas,PENDING_PAYMENT,1073,48,Pelican Sunstream 100 Kayak,199.9900055,0,2016-06-25 20:47:00,Standard Class,2016,June,19,6,Sunday
CASH,2,4,43.93999863,129.9900055,Advance shipping,0,18,Men's Footwear,Caguas,Puerto Rico,Mary,266,Knapp,Corporate,PR,8460 Dewy Nook,725.0,4,Apparel,18.22757149,-66.04361725,Europe,Rome,Italia,266,2015-07-05 05:52:00,12691,403,0.0,0.0,31755,129.9900055,0.340000004,1,129.9900055,129.9900055,43.93999863,Southern Europe,Lacio,CLOSED,403,18,Nike Men's CJ Elite 2 TD Football Cleat,129.9900055,0,2015-07-07 05:52:00,Standard Class,2015,July,5,2,Sunday
CASH,2,1,2.609999895,43.47999954,Late delivery,1,46,Indoor/Outdoor Games,Brighton,EE. UU.,Louis,10138,Kennedy,Corporate,MA,8981 Harvest Hills Path,2135.0,7,Fan Shop,42.34962845,-71.15328217,Africa,Sale,Marruecos,10138,2016-12-02 20:33:00,48081,1014,6.5,0.129999995,120231,49.97999954,0.059999999,1,49.97999954,43.47999954,2.609999895,North Africa,Rabat-Salé-Zemur-Zaer,CLOSED,1014,46,O'Brien Men's Neoprene Life Vest,49.97999954,0,2016-12-04 20:33:00,First Class,2016,December,2,2,Friday
DEBIT,2,4,38.66999817,110.4899979,Advance shipping,0,18,Men's Footwear,Campbell,EE. UU.,Mary,9603,Moore,Consumer,CA,2299 Foggy Shadow Cape,95008.0,4,Apparel,37.28808594,-121.9490814,Europe,Creil,Francia,9603,2015-10-06 23:05:00,19111,403,19.5,0.150000006,47771,129.9900055,0.349999994,1,129.9900055,110.4899979,38.66999817,Western Europe,Norte-Paso de Calais-Picardía,ON_HOLD,403,18,Nike Men's CJ Elite 2 TD Football Cleat,129.9900055,0,2015-10-08 23:05:00,Standard Class,2015,October,6,2,Tuesday
DEBIT,4,2,15.28999996,109.1900024,Late delivery,1,18,Men's Footwear,Caguas,Puerto Rico,Mary,8555,Jones,Consumer,PR,8212 Broad Circle,725.0,4,Apparel,18.26757813,-66.3705368,USCA,Apopka,Estados Unidos,8555,2016-06-23 20:26:00,36983,403,20.79999924,0.159999996,92296,129.9900055,0.140000001,1,129.9900055,109.1900024,15.28999996,South of  USA ,Florida,ON_HOLD,403,18,Nike Men's CJ Elite 2 TD Football Cleat,129.9900055,0,2016-06-27 20:26:00,Second Class,2016,June,23,4,Thursday
DEBIT,5,4,47.75999832,113.6999969,Late delivery,1,40,Accessories,Oxnard,EE. UU.,Mary,125,Gallagher,Consumer,CA,9831 Sunny Cloud Valley,93030.0,6,Outdoors,33.79024124,-118.2131653,LATAM,Mexico City,México,125,2015-05-17 19:46:00,9374,897,11.25,0.090000004,23404,24.98999977,0.419999987,5,124.9499969,113.6999969,47.75999832,Central America,Distrito Federal,COMPLETE,897,40,Team Golf New England Patriots Putter Grip,24.98999977,0,2015-05-22 19:46:00,Standard Class,2015,May,17,5,Sunday
PAYMENT,5,2,-290.3900146,175.9900055,Late delivery,1,48,Water Sports,Denton,EE. UU.,Donald,8038,Smith,Consumer,TX,164 Stony Field,76201.0,7,Fan Shop,33.21524429,-97.13909149,LATAM,Colima,México,8038,2017-06-12 01:22:00,61179,1073,24.0,0.119999997,153042,199.9900055,-1.649999976,1,199.9900055,175.9900055,-290.3900146,Central America,Colima,PENDING_PAYMENT,1073,48,Pelican Sunstream 100 Kayak,199.9900055,0,2017-06-17 01:22:00,Second Class,2017,June,12,5,Monday
DEBIT,4,2,0.0,387.9599915,Late delivery,1,9,Cardio Equipment,Caguas,Puerto Rico,Mary,7802,Acevedo,Consumer,PR,7179 Amber Cider Village,725.0,3,Footwear,18.23605919,-66.37056732,Pacific Asia,Manila,Filipinas,7802,2015-11-07 16:01:00,21283,191,12.0,0.029999999,53229,99.98999786,0.0,4,399.9599915,387.9599915,0.0,Southeast Asia,Capital Nacional,COMPLETE,191,9,Nike Men's Free 5.0+ Running Shoe,99.98999786,0,2015-11-11 16:01:00,Second Class,2015,November,7,4,Saturday
CASH,2,1,-4.0,79.98999786,Late delivery,1,9,Cardio Equipment,Houston,EE. UU.,Sandra,1716,Smith,Home Office,TX,9044 Bright Pointe,77036.0,3,Footwear,29.71482086,-95.51293945,Europe,Montreuil,Francia,1716,2015-10-19 16:56:00,19984,191,20.0,0.200000003,49957,99.98999786,-0.050000001,1,99.98999786,79.98999786,-4.0,Western Europe,Isla de Francia,CLOSED,191,9,Nike Men's Free 5.0+ Running Shoe,99.98999786,0,2015-10-21 16:56:00,First Class,2015,October,19,2,Monday
CASH,4,4,22.04999924,293.980011,Shipping on time,0,43,Camping & Hiking,Opa Locka,EE. UU.,Mary,3146,Murphy,Consumer,FL,3913 Old Link,33055.0,7,Fan Shop,25.94878006,-80.28707886,LATAM,San Pedro Sula,Honduras,3146,2017-03-13 23:24:00,55008,957,6.0,0.02,137571,299.980011,0.079999998,1,299.980011,293.980011,22.04999924,Central America,Cortés,CLOSED,957,43,Diamondback Women's Serene Classic Comfort Bi,299.980011,0,2017-03-17 23:24:00,Standard Class,2017,March,13,4,Monday
DEBIT,2,1,5.099999905,101.9700012,Late delivery,1,29,Shop By Sport,Caguas,Puerto Rico,Edward,8224,Chang,Consumer,PR,1285 Noble Pointe,725.0,5,Golf,18.25374222,-66.37052155,Europe,Issy-les-Moulineaux,Francia,8224,2015-07-17 21:58:00,13559,627,18.0,0.150000006,33978,39.99000168,0.050000001,3,119.9700012,101.9700012,5.099999905,Western Europe,Isla de Francia,COMPLETE,627,29,Under Armour Girls' Toddler Spine Surge Runni,39.99000168,0,2015-07-19 21:58:00,First Class,2015,July,17,2,Friday
TRANSFER,2,4,-221.8500061,87.0,Advance shipping,0,24,Women's Apparel,Caguas,Puerto Rico,Mary,9471,Adams,Consumer,PR,681 High Pike,725.0,5,Golf,18.2442894,-66.3705368,LATAM,Tlalnepantla,México,9471,2015-02-04 21:19:00,2391,502,13.0,0.129999995,5976,50.0,-2.549999952,2,100.0,87.0,-221.8500061,Central America,México,PENDING,502,24,Nike Men's Dri-FIT Victory Golf Polo,50.0,0,2015-02-06 21:19:00,Standard Class,2015,February,4,2,Wednesday
PAYMENT,5,2,18.97999954,167.9600067,Late delivery,1,29,Shop By Sport,Cleveland,EE. UU.,Kathy,8308,Smith,Consumer,OH,7571 Clear Apple Corner,44109.0,5,Golf,41.436409,-81.70665741,USCA,Oceanside,Estados Unidos,8308,2016-04-12 11:05:00,32024,627,31.98999977,0.159999996,80065,39.99000168,0.109999999,5,199.9499969,167.9600067,18.97999954,East of USA,Nueva York,PENDING_PAYMENT,627,29,Under Armour Girls' Toddler Spine Surge Runni,39.99000168,0,2016-04-17 11:05:00,Second Class,2016,April,12,5,Tuesday
DEBIT,3,4,137.9900055,299.9700012,Advance shipping,0,9,Cardio Equipment,Greeley,EE. UU.,Julia,7342,Hicks,Consumer,CO,4186 Wishing Pine Subdivision,80631.0,3,Footwear,40.41231918,-104.6923523,LATAM,Antiguo Cuscatlán,El Salvador,7342,2017-05-25 12:15:00,59977,191,99.98999786,0.25,150105,99.98999786,0.460000008,4,399.9599915,299.9700012,137.9900055,Central America,La Libertad,COMPLETE,191,9,Nike Men's Free 5.0+ Running Shoe,99.98999786,0,2017-05-28 12:15:00,Standard Class,2017,May,25,3,Thursday
CASH,2,4,38.0,379.9599915,Advance shipping,0,9,Cardio Equipment,Caguas,Puerto Rico,Alice,4532,Smith,Home Office,PR,2673 Rocky Quail Way,725.0,3,Footwear,18.25015068,-66.37051392,Pacific Asia,Hamilton,Nueva Zelanda,4532,2016-03-24 03:34:00,30701,191,20.0,0.050000001,76683,99.98999786,0.100000001,4,399.9599915,379.9599915,38.0,Oceania,Waikato,CLOSED,191,9,Nike Men's Free 5.0+ Running Shoe,99.98999786,0,2016-03-26 03:34:00,Standard Class,2016,March,24,2,Thursday
DEBIT,2,4,141.1100006,287.980011,Advance shipping,0,43,Camping & Hiking,Greenville,EE. UU.,Janet,5139,Garner,Consumer,NC,4920 Gentle Autoroute,27858.0,7,Fan Shop,35.67084885,-77.48187256,USCA,Allentown,Estados Unidos,5139,2016-08-13 23:41:00,40486,957,12.0,0.039999999,101027,299.980011,0.49000001,1,299.980011,287.980011,141.1100006,East of USA,Pensilvania,COMPLETE,957,43,Diamondback Women's Serene Classic Comfort Bi,299.980011,0,2016-08-15 23:41:00,Standard Class,2016,August,13,2,Saturday
TRANSFER,2,4,79.94000244,245.9799957,Advance shipping,0,43,Camping & Hiking,Long Beach,EE. UU.,Mary,6981,Brennan,Home Office,CA,9293 Tawny Terrace,90813.0,7,Fan Shop,33.78245163,-118.1922455,Europe,Oslo,Noruega,6981,2017-09-15 08:04:00,67706,957,54.0,0.180000007,169270,299.980011,0.330000013,1,299.980011,245.9799957,79.94000244,Northern Europe,Oslo,PROCESSING,957,43,Diamondback Women's Serene Classic Comfort Bi,299.980011,0,2017-09-17 08:04:00,Standard Class,2017,September,15,2,Friday
TRANSFER,5,2,7.570000172,199.1699982,Late delivery,1,17,Cleats,Caguas,Puerto Rico,Rachel,1417,Smith,Corporate,PR,9543 Lost Corners,725.0,4,Apparel,18.25158501,-66.37049866,Europe,Baden-Baden,Alemania,1417,2015-06-11 13:36:00,11069,365,40.79000092,0.170000002,27710,59.99000168,0.039999999,4,239.9600067,199.1699982,7.570000172,Western Europe,Baden-Wurtemberg,PROCESSING,365,17,Perfect Fitness Perfect Rip Deck,59.99000168,0,2015-06-16 13:36:00,Second Class,2015,June,11,5,Thursday
DEBIT,3,4,22.37000084,197.9900055,Advance shipping,0,48,Water Sports,Campbell,EE. UU.,Ethan,12051,Cox,Consumer,CA,9393 Easy Towers,95008.0,7,Fan Shop,38.53039169,-121.8856354,Pacific Asia,Gold Coast,Australia,12051,2016-03-24 10:56:00,30722,1073,2.0,0.01,76740,199.9900055,0.109999999,1,199.9900055,197.9900055,22.37000084,Oceania,Queensland,COMPLETE,1073,48,Pelican Sunstream 100 Kayak,199.9900055,0,2016-03-27 10:56:00,Standard Class,2016,March,24,3,Thursday
PAYMENT,5,4,30.59000015,179.9600067,Late delivery,1,29,Shop By Sport,Dallas,EE. UU.,Mary,7421,Reyes,Consumer,TX,4034 Emerald Heights,75211.0,5,Golf,32.72340393,-96.88557434,Pacific Asia,Gold Coast,Australia,7421,2015-11-30 23:10:00,22879,627,20.0,0.100000001,57275,39.99000168,0.170000002,5,199.9499969,179.9600067,30.59000015,Oceania,Queensland,PENDING_PAYMENT,627,29,Under Armour Girls' Toddler Spine Surge Runni,39.99000168,0,2015-12-05 23:10:00,Standard Class,2015,November,30,5,Monday
DEBIT,4,2,57.00999832,118.7799988,Late delivery,1,17,Cleats,Caguas,Puerto Rico,Mary,9451,Smith,Home Office,PR,5723 Cinder Loop,725.0,4,Apparel,18.23650742,-66.37051392,Pacific Asia,Kowloon,Hong Kong,9451,2016-03-09 03:25:00,29673,365,1.200000048,0.01,74225,59.99000168,0.479999989,2,119.9800034,118.7799988,57.00999832,Eastern Asia,Hong Kong,COMPLETE,365,17,Perfect Fitness Perfect Rip Deck,59.99000168,0,2016-03-13 03:25:00,Second Class,2016,March,9,4,Wednesday
DEBIT,5,2,-45.0,149.9900055,Late delivery,1,48,Water Sports,Caguas,Puerto Rico,Mary,2634,Smith,Corporate,PR,417 Hidden Rabbit Crossing,725.0,7,Fan Shop,18.21146965,-66.37054443,Pacific Asia,Jinjiang,China,2634,2016-03-06 00:26:00,29459,1073,50.0,0.25,73704,199.9900055,-0.300000012,1,199.9900055,149.9900055,-45.0,Eastern Asia,Fujian,COMPLETE,1073,48,Pelican Sunstream 100 Kayak,199.9900055,0,2016-03-11 00:26:00,Second Class,2016,March,6,5,Sunday
DEBIT,2,1,108.3499985,251.9799957,Late delivery,1,43,Camping & Hiking,Caguas,Puerto Rico,Timothy,9457,Smith,Home Office,PR,3996 Indian Lookout,725.0,7,Fan Shop,18.27299118,-66.37055969,Europe,Katowice,Polonia,9457,2016-12-27 00:02:00,49735,957,48.0,0.159999996,124317,299.980011,0.430000007,1,299.980011,251.9799957,108.3499985,Eastern Europe,Silesia,COMPLETE,957,43,Diamondback Women's Serene Classic Comfort Bi,299.980011,0,2016-12-29 00:02:00,First Class,2016,December,27,2,Tuesday
PAYMENT,2,1,33.43000031,189.9199982,Late delivery,1,46,Indoor/Outdoor Games,Carson,EE. UU.,Patricia,8016,Smith,Consumer,CA,2905 Quiet River Trail,90745.0,7,Fan Shop,33.83177567,-118.2174606,Africa,Mogadishu,Somalia,8016,2016-11-01 23:14:00,45965,1014,10.0,0.050000001,114870,49.97999954,0.180000007,4,199.9199982,189.9199982,33.43000031,East Africa,Benadir,PENDING_PAYMENT,1014,46,O'Brien Men's Neoprene Life Vest,49.97999954,0,2016-11-03 23:14:00,First Class,2016,November,1,2,Tuesday
TRANSFER,6,4,37.70000076,129.9900055,Late delivery,1,18,Men's Footwear,Caguas,Puerto Rico,David,2354,Flores,Home Office,PR,9539 Old Diversion,725.0,4,Apparel,18.23071861,-66.3705368,LATAM,Santo Domingo,República Dominicana,2354,2017-02-05 03:28:00,52485,403,0.0,0.0,131184,129.9900055,0.289999992,1,129.9900055,129.9900055,37.70000076,Caribbean,Santo Domingo,PROCESSING,403,18,Nike Men's CJ Elite 2 TD Football Cleat,129.9900055,0,2017-02-11 03:28:00,Standard Class,2017,February,5,6,Sunday
PAYMENT,4,2,56.54999924,217.5,Late delivery,1,24,Women's Apparel,Caguas,Puerto Rico,Mary,8986,Smith,Home Office,PR,4551 Jagged Bay,725.0,5,Golf,18.21183395,-66.3705368,LATAM,Mauá,Brasil,8986,2017-03-01 03:05:00,54128,502,32.5,0.129999995,135345,50.0,0.25999999,5,250.0,217.5,56.54999924,South America,São Paulo,PENDING_PAYMENT,502,24,Nike Men's Dri-FIT Victory Golf Polo,50.0,0,2017-03-05 03:05:00,Second Class,2017,March,1,4,Wednesday
PAYMENT,3,2,21.35000038,68.19999695,Late delivery,1,36,Golf Balls,Caguas,Puerto Rico,Russell,1815,Smith,Corporate,PR,1875 Bright Ledge,725.0,6,Outdoors,18.26060486,-66.37052918,Pacific Asia,Bangkok,Tailandia,1815,2016-01-14 18:02:00,25947,792,6.75,0.090000004,64953,14.98999977,0.310000002,5,74.94999695,68.19999695,21.35000038,Southeast Asia,Bangkok,PENDING_PAYMENT,792,36,Hirzl Men's Hybrid Golf Glove,14.98999977,0,2016-01-17 18:02:00,Second Class,2016,January,14,3,Thursday
TRANSFER,1,0,40.50999832,191.9900055,Late delivery,1,48,Water Sports,Caguas,Puerto Rico,Charles,1822,Smith,Home Office,PR,4806 Middle Canyon,725.0,7,Fan Shop,18.27599907,-66.37050629,USCA,San Francisco,Estados Unidos,1822,2016-05-23 19:15:00,34856,1073,8.0,0.039999999,87078,199.9900055,0.209999993,1,199.9900055,191.9900055,40.50999832,West of USA ,California,PROCESSING,1073,48,Pelican Sunstream 100 Kayak,199.9900055,0,2016-05-24 07:15:00,Same Day,2016,May,23,0,Monday
DEBIT,5,4,68.61000061,189.0,Late delivery,1,24,Women's Apparel,New York,EE. UU.,Richard,1255,Goodman,Consumer,NY,7236 Cotton Cove,10032.0,5,Golf,40.83852005,-73.94216919,Europe,Valdemoro,España,1255,2017-09-12 23:19:00,67544,502,11.0,0.059999999,168869,50.0,0.360000014,4,200.0,189.0,68.61000061,Southern Europe,Madrid,COMPLETE,502,24,Nike Men's Dri-FIT Victory Golf Polo,50.0,0,2017-09-17 23:19:00,Standard Class,2017,September,12,5,Tuesday
PAYMENT,3,2,13.0,103.9899979,Late delivery,1,18,Men's Footwear,Dallas,EE. UU.,Mary,782,Joseph,Consumer,TX,7929 Red Island Bay,75240.0,4,Apparel,32.91875839,-96.77437592,USCA,Los Angeles,Estados Unidos,782,2016-08-18 19:39:00,40817,403,26.0,0.200000003,101878,129.9900055,0.129999995,1,129.9900055,103.9899979,13.0,West of USA ,California,PENDING_PAYMENT,403,18,Nike Men's CJ Elite 2 TD Football Cleat,129.9900055,0,2016-08-21 19:39:00,Second Class,2016,August,18,3,Thursday
TRANSFER,3,2,23.75,189.9799957,Shipping canceled,0,9,Cardio Equipment,Granada Hills,EE. UU.,Pamela,11154,Dickerson,Home Office,CA,5803 Burning Abbey,91344.0,3,Footwear,34.2639389,-118.4979401,Europe,Arles,Francia,11154,2017-09-04 13:10:00,66967,191,10.0,0.050000001,167403,99.98999786,0.129999995,2,199.9799957,189.9799957,23.75,Western Europe,Provenza-Alpes-Costa Azul,CANCELED,191,9,Nike Men's Free 5.0+ Running Shoe,99.98999786,0,2017-09-07 13:10:00,Second Class,2017,September,4,3,Monday
TRANSFER,6,2,-37.77000046,83.0,Late delivery,1,24,Women's Apparel,Caguas,Puerto Rico,Mary,5815,Proctor,Corporate,PR,8498 High Quay,725.0,5,Golf,18.2005806,-66.37059021,LATAM,Sonsonate,El Salvador,5815,2017-06-13 05:45:00,61260,502,17.0,0.170000002,153248,50.0,-0.460000008,2,100.0,83.0,-37.77000046,Central America,Sonsonate,PENDING,502,24,Nike Men's Dri-FIT Victory Golf Polo,50.0,0,2017-06-19 05:45:00,Second Class,2017,June,13,6,Tuesday
DEBIT,2,2,37.41999817,113.3799973,Shipping on time,0,17,Cleats,Caguas,Puerto Rico,Sharon,5441,Smith,Consumer,PR,5382 Hazy Pathway,725.0,4,Apparel,18.21523285,-66.37060547,LATAM,David,Panamá,5441,2015-02-25 20:04:00,3826,365,6.599999905,0.059999999,9513,59.99000168,0.330000013,2,119.9800034,113.3799973,37.41999817,Central America,Chiriquí,COMPLETE,365,17,Perfect Fitness Perfect Rip Deck,59.99000168,0,2015-02-27 20:04:00,Second Class,2015,February,25,2,Wednesday
TRANSFER,1,0,-19.82999992,118.75,Late delivery,1,26,Girls' Apparel,Los Angeles,EE. UU.,Tammy,12105,Hahn,Consumer,CA,5032 Thunder Quail Path,90046.0,5,Golf,34.09077072,-118.3511963,LATAM,Villahermosa,México,12105,2015-05-05 12:47:00,8532,567,6.25,0.050000001,21291,25.0,-0.170000002,5,125.0,118.75,-19.82999992,Central America,Tabasco,PROCESSING,567,26,adidas Men's Germany Black Crest Away Tee,25.0,0,2015-05-06 00:47:00,Same Day,2015,May,5,0,Tuesday
DEBIT,6,4,6.460000038,169.9799957,Late delivery,1,9,Cardio Equipment,San Diego,EE. UU.,Mark,10625,Davis,Consumer,CA,7802 Green Willow Extension,92115.0,3,Footwear,32.75856018,-117.0881882,Europe,Dnipropetrovsk,Ucrania,10625,2016-09-09 23:29:00,42335,191,30.0,0.150000006,105716,99.98999786,0.039999999,2,199.9799957,169.9799957,6.460000038,Eastern Europe,Dnipropetrovsk,COMPLETE,191,9,Nike Men's Free 5.0+ Running Shoe,99.98999786,0,2016-09-15 23:29:00,Standard Class,2016,September,9,6,Friday
DEBIT,3,4,56.15000153,172.7700043,Advance shipping,0,17,Cleats,Caguas,Puerto Rico,Jordan,4320,Taylor,Consumer,PR,7192 Green Arbor,725.0,4,Apparel,18.20847893,-66.37060547,Africa,Sale,Marruecos,4320,2016-09-26 20:50:00,43492,365,7.199999809,0.039999999,108641,59.99000168,0.330000013,3,179.9700012,172.7700043,56.15000153,North Africa,Rabat-Salé-Zemur-Zaer,COMPLETE,365,17,Perfect Fitness Perfect Rip Deck,59.99000168,0,2016-09-29 20:50:00,Standard Class,2016,September,26,3,Monday
TRANSFER,2,4,14.13000011,43.47999954,Advance shipping,0,46,Indoor/Outdoor Games,Newark,EE. UU.,Amber,5338,Smith,Home Office,NJ,2221 Lazy Sky Trail,7104.0,7,Fan Shop,40.13269424,-74.06029511,Europe,Rome,Italia,5338,2015-09-02 12:16:00,16751,1014,6.5,0.129999995,41859,49.97999954,0.330000013,1,49.97999954,43.47999954,14.13000011,Southern Europe,Lacio,PENDING,1014,46,O'Brien Men's Neoprene Life Vest,49.97999954,0,2015-09-04 12:16:00,Standard Class,2015,September,2,2,Wednesday
TRANSFER,5,2,17.80999947,47.47999954,Late delivery,1,46,Indoor/Outdoor Games,East Brunswick,EE. UU.,Mary,6951,Williams,Corporate,NJ,263 Harvest Wood,8816.0,7,Fan Shop,40.41255188,-74.41832733,Europe,Alfortville,Francia,6951,2015-06-18 01:31:00,11514,1014,2.5,0.050000001,28803,49.97999954,0.379999995,1,49.97999954,47.47999954,17.80999947,Western Europe,Isla de Francia,PROCESSING,1014,46,O'Brien Men's Neoprene Life Vest,49.97999954,0,2015-06-23 01:31:00,Second Class,2015,June,18,5,Thursday
DEBIT,5,2,2.420000076,24.23999977,Late delivery,1,5,Lacrosse,Caguas,Puerto Rico,Emily,4603,Coleman,Corporate,PR,7539 Tawny Timber Concession,725.0,2,Fitness,18.2863884,-66.37059021,Pacific Asia,Ankara,Turquía,4603,2016-12-07 01:27:00,48369,93,0.75,0.029999999,120975,24.98999977,0.100000001,1,24.98999977,24.23999977,2.420000076,West Asia,Ankara,COMPLETE,93,5,Under Armour Men's Tech II T-Shirt,24.98999977,0,2016-12-12 01:27:00,Second Class,2016,December,7,5,Wednesday
PAYMENT,3,4,21.12000084,240.0,Advance shipping,0,24,Women's Apparel,La Crosse,EE. UU.,Donald,2691,Jimenez,Consumer,WI,9905 Green Elk Court,54601.0,5,Golf,43.8122406,-91.24485779,Africa,Batna,Argelia,2691,2016-10-16 01:32:00,44807,502,10.0,0.039999999,111932,50.0,0.090000004,5,250.0,240.0,21.12000084,North Africa,Batna,PENDING_PAYMENT,502,24,Nike Men's Dri-FIT Victory Golf Polo,50.0,0,2016-10-19 01:32:00,Standard Class,2016,October,16,3,Sunday
DEBIT,1,0,78.62000275,272.980011,Late delivery,1,43,Camping & Hiking,Caguas,Puerto Rico,Sara,5930,Smith,Corporate,PR,3298 Round Creek Expressway,725.0,7,Fan Shop,18.24949074,-66.37057495,LATAM,Sapucaia do Sul,Brasil,5930,2017-03-03 22:42:00,54321,957,27.0,0.090000004,135844,299.980011,0.289999992,1,299.980011,272.980011,78.62000275,South America,Rio Grande do Sul,ON_HOLD,957,43,Diamondback Women's Serene Classic Comfort Bi,299.980011,0,2017-03-04 10:42:00,Same Day,2017,March,3,0,Friday
DEBIT,2,4,3.75,29.98999977,Advance shipping,0,29,Shop By Sport,Caguas,Puerto Rico,Mary,3940,Smith,Consumer,PR,7258 Burning Dale Mountain,725.0,5,Golf,18.21918869,-66.37059021,Europe,Mulhouse,Francia,3940,2017-08-15 00:35:00,65561,627,10.0,0.25,163852,39.99000168,0.129999995,1,39.99000168,29.98999977,3.75,Western Europe,Alsacia-Champaña-Ardenas-Lorena,COMPLETE,627,29,Under Armour Girls' Toddler Spine Surge Runni,39.99000168,0,2017-08-17 00:35:00,Standard Class,2017,August,15,2,Tuesday
PAYMENT,2,2,49.59000015,141.6900024,Shipping on time,0,46,Indoor/Outdoor Games,Baltimore,EE. UU.,Mary,6483,Smith,Consumer,MD,7894 Colonial Knoll,21224.0,7,Fan Shop,39.29849625,-76.51654816,Europe,Boulogne-Billancourt,Francia,6483,2017-09-07 17:53:00,67186,1014,8.25,0.059999999,167926,49.97999954,0.349999994,3,149.9400024,141.6900024,49.59000015,Western Europe,Isla de Francia,PENDING_PAYMENT,1014,46,O'Brien Men's Neoprene Life Vest,49.97999954,0,2017-09-09 17:53:00,Second Class,2017,September,7,2,Thursday
TRANSFER,6,4,23.76000023,48.47999954,Shipping canceled,0,46,Indoor/Outdoor Games,Caguas,Puerto Rico,Christine,767,Horne,Consumer,PR,2543 Foggy Pond Crescent,725.0,7,Fan Shop,18.2275734,-66.04399109,Europe,Birmingham,Reino Unido,767,2017-08-04 17:14:00,64855,1014,1.5,0.029999999,162118,49.97999954,0.49000001,1,49.97999954,48.47999954,23.76000023,Northern Europe,Inglaterra,SUSPECTED_FRAUD,1014,46,O'Brien Men's Neoprene Life Vest,49.97999954,0,2017-08-10 17:14:00,Standard Class,2017,August,4,6,Friday
TRANSFER,4,2,5.809999943,152.9700012,Late delivery,1,17,Cleats,Caguas,Puerto Rico,Grace,679,Smith,Corporate,PR,4647 Umber View Farms,725.0,4,Apparel,18.24757767,-66.02545929,Pacific Asia,Yicheng,China,679,2016-01-04 14:54:00,25253,365,27.0,0.150000006,63283,59.99000168,0.039999999,3,179.9700012,152.9700012,5.809999943,Eastern Asia,Hubei,PROCESSING,365,17,Perfect Fitness Perfect Rip Deck,59.99000168,0,2016-01-08 14:54:00,Second Class,2016,January,4,4,Monday
DEBIT,5,4,-15.31000042,97.48999786,Late delivery,1,18,Men's Footwear,Indianapolis,EE. UU.,Mary,9791,Smith,Home Office,IN,8056 Golden Log Bend,46226.0,4,Apparel,39.92660523,-86.3370285,LATAM,Ciego de Ávila,Cuba,9791,2017-03-24 04:59:00,55709,403,32.5,0.25,139335,129.9900055,-0.159999996,1,129.9900055,97.48999786,-15.31000042,Caribbean,Ciego de Ávila,COMPLETE,403,18,Nike Men's CJ Elite 2 TD Football Cleat,129.9900055,0,2017-03-29 04:59:00,Standard Class,2017,March,24,5,Friday
CASH,2,1,20.77000046,110.4899979,Late delivery,1,18,Men's Footwear,Crystal Lake,EE. UU.,Mary,1944,Smith,Home Office,IL,9929 Hidden Berry Campus,60014.0,4,Apparel,42.24145126,-88.27947235,Europe,Maisons-Alfort,Francia,1944,2015-10-13 17:38:00,19575,403,19.5,0.150000006,48930,129.9900055,0.189999998,1,129.9900055,110.4899979,20.77000046,Western Europe,Isla de Francia,CLOSED,403,18,Nike Men's CJ Elite 2 TD Football Cleat,129.9900055,0,2015-10-15 17:38:00,First Class,2015,October,13,2,Tuesday
PAYMENT,2,2,-38.29999924,335.980011,Shipping on time,0,45,Fishing,Lenoir,EE. UU.,Scott,4334,Parker,Consumer,NC,8324 Little Common,28645.0,7,Fan Shop,36.11019898,-81.52600861,LATAM,Santo Domingo,República Dominicana,4334,2017-06-06 14:41:00,60806,1004,64.0,0.159999996,152158,399.980011,-0.109999999,1,399.980011,335.980011,-38.29999924,Caribbean,Santo Domingo,PENDING_PAYMENT,1004,45,Field & Stream Sportsman 16 Gun Fire Safe,399.980011,0,2017-06-08 14:41:00,Second Class,2017,June,6,2,Tuesday
CASH,6,4,4.519999981,71.73999786,Late delivery,1,72,Pet Supplies,Caguas,Puerto Rico,TaShya,19203,Cain,Consumer,PR,3369 Clear Fox Landing,725.0,11,Pet Shop,18.25060272,-66.03705597,Pacific Asia,Manila,Filipinas,19203,2018-01-09 07:12:00,75650,1359,12.65999985,0.150000006,178965,84.40000153,0.059999999,1,84.40000153,71.73999786,4.519999981,Southeast Asia,Capital Nacional,CLOSED,1359,72,Adult dog supplies,84.40000153,0,2018-01-15 07:12:00,Standard Class,2018,January,9,6,Tuesday
DEBIT,4,4,14.68999958,41.97999954,Shipping on time,0,46,Indoor/Outdoor Games,Dallas,EE. UU.,Mary,10256,Little,Home Office,TX,8988 Shady Park,75217.0,7,Fan Shop,32.71303558,-96.69631958,Pacific Asia,Teherán,Irán,10256,2016-12-08 03:23:00,48443,1014,8.0,0.159999996,121152,49.97999954,0.349999994,1,49.97999954,41.97999954,14.68999958,South Asia,Teherán,COMPLETE,1014,46,O'Brien Men's Neoprene Life Vest,49.97999954,0,2016-12-12 03:23:00,Standard Class,2016,December,8,4,Thursday
DEBIT,2,4,-3.0,249.8999939,Advance shipping,0,46,Indoor/Outdoor Games,Caguas,Puerto Rico,Rachel,11176,Perez,Consumer,PR,4957 Lost Quail Rise,725.0,7,Fan Shop,18.28899002,-66.37057495,Europe,Montpellier,Francia,11176,2015-10-13 23:14:00,19591,1014,0.0,0.0,48977,49.97999954,-0.01,5,249.8999939,249.8999939,-3.0,Western Europe,Languedoc-Rosellón-Mediodía-Pirineos,COMPLETE,1014,46,O'Brien Men's Neoprene Life Vest,49.97999954,0,2015-10-15 23:14:00,Standard Class,2015,October,13,2,Tuesday
PAYMENT,2,4,33.63000107,152.8500061,Advance shipping,0,37,Electronics,New York,EE. UU.,Mary,9742,Frost,Home Office,NY,4208 Jagged Apple Dale,10021.0,6,Outdoors,40.64249039,-73.99433136,LATAM,Petare,Venezuela,9742,2015-01-11 05:14:00,701,823,3.119999886,0.02,1732,51.99000168,0.219999999,3,155.9700012,152.8500061,33.63000107,South America,Miranda,PENDING_PAYMENT,823,37,Titleist Pro V1x High Numbers Personalized Go,51.99000168,0,2015-01-13 05:14:00,Standard Class,2015,January,11,2,Sunday
DEBIT,5,2,-26.22999954,120.8899994,Late delivery,1,18,Men's Footwear,Los Angeles,EE. UU.,Maria,3295,Joseph,Corporate,CA,8808 Gentle Crossing,90024.0,4,Apparel,34.06435013,-118.437088,LATAM,Tijuana,México,3295,2015-01-27 05:55:00,1799,403,9.100000381,0.07,4495,129.9900055,-0.219999999,1,129.9900055,120.8899994,-26.22999954,Central America,Baja California,COMPLETE,403,18,Nike Men's CJ Elite 2 TD Football Cleat,129.9900055,0,2015-02-01 05:55:00,Second Class,2015,January,27,5,Tuesday
DEBIT,4,4,2.640000105,263.9599915,Shipping on time,0,17,Cleats,Long Beach,EE. UU.,Rachel,11160,Smith,Consumer,CA,3236 Grand Carrefour,90806.0,4,Apparel,33.79627991,-118.1914597,Africa,Kano,Nigeria,11160,2016-12-09 10:55:00,48533,365,35.99000168,0.119999997,121362,59.99000168,0.01,5,299.9500122,263.9599915,2.640000105,West Africa,Kano,COMPLETE,365,17,Perfect Fitness Perfect Rip Deck,59.99000168,0,2016-12-13 10:55:00,Standard Class,2016,December,9,4,Friday
DEBIT,6,4,7.5,59.99000168,Late delivery,1,17,Cleats,Tallahassee,EE. UU.,Jennifer,12214,Summers,Consumer,FL,2749 Emerald Glen,32308.0,4,Apparel,30.49767876,-84.23183441,Africa,Ibadan,Nigeria,12214,2016-12-14 14:14:00,48885,365,0.0,0.0,122234,59.99000168,0.129999995,1,59.99000168,59.99000168,7.5,West Africa,Oyo,COMPLETE,365,17,Perfect Fitness Perfect Rip Deck,59.99000168,0,2016-12-20 14:14:00,Standard Class,2016,December,14,6,Wednesday
PAYMENT,5,2,163.5500031,347.980011,Late delivery,1,45,Fishing,Caguas,Puerto Rico,Cynthia,1149,Harper,Consumer,PR,4896 Sleepy Leaf Court,725.0,7,Fan Shop,18.28394127,-66.37052918,Europe,Swansea,Reino Unido,1149,2017-07-18 21:59:00,63704,1004,52.0,0.129999995,159248,399.980011,0.469999999,1,399.980011,347.980011,163.5500031,Northern Europe,Gales,PENDING_PAYMENT,1004,45,Field & Stream Sportsman 16 Gun Fire Safe,399.980011,0,2017-07-23 21:59:00,Second Class,2017,July,18,5,Tuesday
PAYMENT,6,4,97.44000244,335.980011,Late delivery,1,45,Fishing,Painesville,EE. UU.,Mary,7949,Barrera,Consumer,OH,3495 Round Mount,44077.0,7,Fan Shop,41.72184372,-81.19454956,USCA,Los Angeles,Estados Unidos,7949,2016-07-28 04:27:00,39335,1004,64.0,0.159999996,98200,399.980011,0.289999992,1,399.980011,335.980011,97.44000244,West of USA ,California,PENDING_PAYMENT,1004,45,Field & Stream Sportsman 16 Gun Fire Safe,399.980011,0,2016-08-03 04:27:00,Standard Class,2016,July,28,6,Thursday
TRANSFER,2,4,20.59000015,114.3899994,Advance shipping,0,18,Men's Footwear,Ballwin,EE. UU.,Mary,4696,Smith,Corporate,MO,2650 Hidden Common,63021.0,4,Apparel,38.58826065,-90.49710083,Europe,Munich,Alemania,4696,2017-09-02 01:15:00,66796,403,15.60000038,0.119999997,166966,129.9900055,0.180000007,1,129.9900055,114.3899994,20.59000015,Western Europe,Bavaria,PENDING,403,18,Nike Men's CJ Elite 2 TD Football Cleat,129.9900055,0,2017-09-04 01:15:00,Standard Class,2017,September,2,2,Saturday
CASH,4,2,14.10999966,50.40000153,Late delivery,1,9,Cardio Equipment,Caguas,Puerto Rico,Mary,8997,Smith,Corporate,PR,8668 Shady Panda Expressway,725.0,3,Footwear,18.22680283,-66.37052918,LATAM,Buenos Aires,Argentina,8997,2015-03-06 09:43:00,4413,172,9.600000381,0.159999996,11056,30.0,0.280000001,2,60.0,50.40000153,14.10999966,South America,Buenos Aires,CLOSED,172,9,Nike Women's Tempo Shorts,30.0,0,2015-03-10 09:43:00,Second Class,2015,March,6,4,Friday
PAYMENT,3,4,32.75999832,83.98999786,Advance shipping,0,9,Cardio Equipment,Albuquerque,EE. UU.,Russell,6850,Taylor,Consumer,NM,5520 Bright Hills Gardens,87105.0,3,Footwear,34.99743652,-106.6525803,LATAM,Choluteca,Honduras,6850,2015-04-06 06:20:00,6527,191,16.0,0.159999996,16318,99.98999786,0.389999986,1,99.98999786,83.98999786,32.75999832,Central America,Choluteca,PENDING_PAYMENT,191,9,Nike Men's Free 5.0+ Running Shoe,99.98999786,0,2015-04-09 06:20:00,Standard Class,2015,April,6,3,Monday
CASH,1,0,29.01000023,111.5800018,Late delivery,1,17,Cleats,Carolina,Puerto Rico,Laura,5565,Orr,Consumer,PR,4920 Gentle Autoroute,983.0,4,Apparel,18.40143013,-65.97364807,Africa,Garoua,Camerún,5565,2016-10-14 21:30:00,44727,365,8.399999619,0.07,111712,59.99000168,0.25999999,2,119.9800034,111.5800018,29.01000023,Central Africa,Nord,CLOSED,365,17,Perfect Fitness Perfect Rip Deck,59.99000168,0,2016-10-15 09:30:00,Same Day,2016,October,14,0,Friday
PAYMENT,2,1,30.90999985,106.5899963,Late delivery,1,18,Men's Footwear,Daly City,EE. UU.,Christine,9924,Smith,Consumer,CA,5078 Foggy Panda Highlands,94015.0,4,Apparel,37.69598389,-122.4800415,Pacific Asia,Shah Alam,Malasia,9924,2016-02-04 15:43:00,27379,403,23.39999962,0.180000007,68570,129.9900055,0.289999992,1,129.9900055,106.5899963,30.90999985,Southeast Asia,Selangor,PAYMENT_REVIEW,403,18,Nike Men's CJ Elite 2 TD Football Cleat,129.9900055,0,2016-02-06 15:43:00,First Class,2016,February,4,2,Thursday
DEBIT,5,4,-72.44000244,86.97000122,Late delivery,1,46,Indoor/Outdoor Games,Elyria,EE. UU.,Joseph,3741,Johnson,Home Office,OH,3847 Wishing Front,44035.0,7,Fan Shop,41.36125946,-82.11012268,LATAM,Tegucigalpa,Honduras,3741,2017-04-06 13:33:00,56624,1014,12.98999977,0.129999995,141633,49.97999954,-0.829999983,2,99.95999908,86.97000122,-72.44000244,Central America,Francisco Morazán,ON_HOLD,1014,46,O'Brien Men's Neoprene Life Vest,49.97999954,0,2017-04-11 13:33:00,Standard Class,2017,April,6,5,Thursday
TRANSFER,3,2,3.880000114,38.79000092,Late delivery,1,29,Shop By Sport,Ithaca,EE. UU.,Mary,4149,Smith,Consumer,NY,8428 Honey Freeway,14850.0,5,Golf,42.43708038,-76.48168945,Europe,Preston,Reino Unido,4149,2015-10-14 15:21:00,19637,627,1.200000048,0.029999999,49097,39.99000168,0.100000001,1,39.99000168,38.79000092,3.880000114,Northern Europe,Inglaterra,PROCESSING,627,29,Under Armour Girls' Toddler Spine Surge Runni,39.99000168,0,2015-10-17 15:21:00,Second Class,2015,October,14,3,Wednesday
TRANSFER,3,4,-19.12000084,50.99000168,Shipping canceled,0,17,Cleats,Los Angeles,EE. UU.,Mary,12136,Smith,Corporate,CA,2122 Clear Rise Common,90022.0,4,Apparel,34.02019501,-118.1562881,USCA,Newark,Estados Unidos,12136,2016-07-03 11:19:00,37642,365,9.0,0.150000006,93949,59.99000168,-0.379999995,1,59.99000168,50.99000168,-19.12000084,East of USA,Delaware,SUSPECTED_FRAUD,365,17,Perfect Fitness Perfect Rip Deck,59.99000168,0,2016-07-06 11:19:00,Standard Class,2016,July,3,3,Sunday
PAYMENT,4,4,26.10000038,173.9900055,Shipping on time,0,48,Water Sports,Memphis,EE. UU.,Ralph,6333,Smith,Consumer,TN,3662 Round Barn Gate,38128.0,7,Fan Shop,35.19882584,-89.90473938,LATAM,Managua,Nicaragua,6333,2015-04-10 07:02:00,6803,1073,26.0,0.129999995,17017,199.9900055,0.150000006,1,199.9900055,173.9900055,26.10000038,Central America,Managua,PENDING_PAYMENT,1073,48,Pelican Sunstream 100 Kayak,199.9900055,0,2015-04-14 07:02:00,Standard Class,2015,April,10,4,Friday
DEBIT,4,4,74.33000183,237.4900055,Shipping on time,0,35,Golf Gloves,Hollister,EE. UU.,Mary,6027,Moore,Corporate,CA,9304 Emerald Oak Plaza,95023.0,6,Outdoors,36.9788475,-121.3809204,LATAM,Tlalpan,México,6027,2017-06-07 07:09:00,60853,773,12.5,0.050000001,152272,249.9900055,0.310000002,1,249.9900055,237.4900055,74.33000183,Central America,Distrito Federal,COMPLETE,773,35,Titleist Small Wheeled Travel Cover,249.9900055,0,2017-06-11 07:09:00,Standard Class,2017,June,7,4,Wednesday
DEBIT,3,2,38.45000076,113.0899963,Late delivery,1,18,Men's Footwear,Caguas,Puerto Rico,Victoria,10191,Gross,Consumer,PR,6567 Red Robin Street,725.0,4,Apparel,18.23155022,-66.37055969,USCA,Seattle,Estados Unidos,10191,2016-06-15 19:24:00,36432,403,16.89999962,0.129999995,90971,129.9900055,0.340000004,1,129.9900055,113.0899963,38.45000076,West of USA ,Washington,ON_HOLD,403,18,Nike Men's CJ Elite 2 TD Football Cleat,129.9900055,0,2016-06-18 19:24:00,Second Class,2016,June,15,3,Wednesday
CASH,1,0,26.95999908,82.97000122,Late delivery,1,46,Indoor/Outdoor Games,Salinas,EE. UU.,Mary,2944,Kelley,Corporate,CA,2734 Dusty Blossom Road,93905.0,7,Fan Shop,36.83275986,-121.5656433,USCA,Henderson,Estados Unidos,2944,2016-08-05 23:00:00,39936,1014,16.98999977,0.170000002,99633,49.97999954,0.330000013,2,99.95999908,82.97000122,26.95999908,South of  USA ,Kentucky,CLOSED,1014,46,O'Brien Men's Neoprene Life Vest,49.97999954,0,2016-08-06 11:00:00,Same Day,2016,August,5,0,Friday
TRANSFER,5,2,27.12000084,239.9799957,Late delivery,1,43,Camping & Hiking,Mililani,EE. UU.,Joshua,10623,Mckenzie,Corporate,HI,1014 Easy Spring Cape,96789.0,7,Fan Shop,21.4479599,-158.016037,Pacific Asia,Bangkok,Tailandia,10623,2015-11-18 20:23:00,22049,957,60.0,0.200000003,55160,299.980011,0.109999999,1,299.980011,239.9799957,27.12000084,Southeast Asia,Bangkok,PENDING,957,43,Diamondback Women's Serene Classic Comfort Bi,299.980011,0,2015-11-23 20:23:00,Second Class,2015,November,18,5,Wednesday
PAYMENT,0,0,16.39999962,163.9900055,Shipping on time,0,48,Water Sports,Detroit,EE. UU.,Theresa,7219,Smith,Consumer,MI,5490 Middle Bend,48205.0,7,Fan Shop,42.42877197,-82.98252869,USCA,Springfield,Estados Unidos,7219,2016-07-07 11:18:00,37916,1073,36.0,0.180000007,94642,199.9900055,0.100000001,1,199.9900055,163.9900055,16.39999962,US Center ,Misuri,PENDING_PAYMENT,1073,48,Pelican Sunstream 100 Kayak,199.9900055,0,2016-07-07 23:18:00,Same Day,2016,July,7,0,Thursday
TRANSFER,6,4,22.29999924,63.70999908,Late delivery,1,36,Golf Balls,Caguas,Puerto Rico,David,2354,Flores,Home Office,PR,9539 Old Diversion,725.0,6,Outdoors,18.23071861,-66.3705368,LATAM,Santo Domingo,República Dominicana,2354,2017-02-05 03:28:00,52485,792,11.23999977,0.150000006,131181,14.98999977,0.349999994,5,74.94999695,63.70999908,22.29999924,Caribbean,Santo Domingo,PROCESSING,792,36,Hirzl Men's Hybrid Golf Glove,14.98999977,0,2017-02-11 03:28:00,Standard Class,2017,February,5,6,Sunday
TRANSFER,4,4,-67.5,299.9899902,Shipping on time,0,45,Fishing,Caguas,Puerto Rico,Brandon,10809,Haney,Home Office,PR,7840 Quiet Island Limits,725.0,7,Fan Shop,18.28572273,-66.37058258,LATAM,Carrefour,Haití,10809,2017-04-21 22:49:00,57678,1004,100.0,0.25,144283,399.980011,-0.230000004,1,399.980011,299.9899902,-67.5,Caribbean,Ouest,PENDING,1004,45,Field & Stream Sportsman 16 Gun Fire Safe,399.980011,0,2017-04-25 22:49:00,Standard Class,2017,April,21,4,Friday
DEBIT,6,2,70.43000031,225.0,Late delivery,1,24,Women's Apparel,Washington,EE. UU.,Harold,697,Pratt,Consumer,DC,4352 Hazy Hickory Road,20019.0,5,Golf,38.91199112,77.09209442,Europe,Toledo,España,697,2017-07-02 15:42:00,62590,502,25.0,0.100000001,156453,50.0,0.310000002,5,250.0,225.0,70.43000031,Southern Europe,Castilla-La Mancha,COMPLETE,502,24,Nike Men's Dri-FIT Victory Golf Polo,50.0,0,2017-07-08 15:42:00,Second Class,2017,July,2,6,Sunday
TRANSFER,2,4,81.97000122,242.5,Advance shipping,0,24,Women's Apparel,Tracy,EE. UU.,Mary,11320,Jones,Corporate,CA,555 Dewy Wagon  Byway,95376.0,5,Golf,37.72648239,-121.4349442,Europe,Estocolmo,Suecia,11320,2017-06-27 04:41:00,62216,502,7.5,0.029999999,155565,50.0,0.340000004,5,250.0,242.5,81.97000122,Northern Europe,Estocolmo,PROCESSING,502,24,Nike Men's Dri-FIT Victory Golf Polo,50.0,0,2017-06-29 04:41:00,Standard Class,2017,June,27,2,Tuesday
DEBIT,5,4,22.15999985,65.5699997,Late delivery,1,36,Golf Balls,Porterville,EE. UU.,Jennifer,7084,Smith,Home Office,CA,4079 Blue End,93257.0,6,Outdoors,36.16730118,-119.083107,LATAM,Diadema,Brasil,7084,2017-02-10 21:31:00,52879,810,14.39000034,0.180000007,132202,19.98999977,0.340000004,4,79.95999908,65.5699997,22.15999985,South America,São Paulo,COMPLETE,810,36,Glove It Women's Mod Oval Golf Glove,19.98999977,0,2017-02-15 21:31:00,Standard Class,2017,February,10,5,Friday
CASH,5,4,41.59999847,159.9900055,Late delivery,1,48,Water Sports,Caguas,Puerto Rico,Mary,5425,Aguirre,Home Office,PR,4311 Thunder Heath,725.0,7,Fan Shop,18.25675011,-66.37059784,Pacific Asia,Bagdad,Irak,5425,2016-10-30 07:49:00,45784,1073,40.0,0.200000003,114446,199.9900055,0.25999999,1,199.9900055,159.9900055,41.59999847,West Asia,Bagdad,CLOSED,1073,48,Pelican Sunstream 100 Kayak,199.9900055,0,2016-11-04 07:49:00,Standard Class,2016,October,30,5,Sunday
TRANSFER,0,0,157.4299927,327.980011,Shipping canceled,0,45,Fishing,Caguas,Puerto Rico,Brittany,12069,Gardner,Home Office,PR,4232 Wishing Creek Campus,725.0,7,Fan Shop,18.22298622,-66.37062836,Africa,Kafr ad Dawwar,Egipto,12069,2016-09-03 10:10:00,41886,1004,72.0,0.180000007,104547,399.980011,0.479999989,1,399.980011,327.980011,157.4299927,North Africa,Al Buhayrah,CANCELED,1004,45,Field & Stream Sportsman 16 Gun Fire Safe,399.980011,0,2016-09-03 22:10:00,Same Day,2016,September,3,0,Saturday
DEBIT,1,0,23.76000023,88.0,Late delivery,1,24,Women's Apparel,Rowland Heights,EE. UU.,Jane,8542,Rich,Consumer,CA,1254 Hazy Trail,91748.0,5,Golf,34.00062561,-117.9077301,Europe,Nieuwegein,Países Bajos,8542,2015-10-11 23:36:00,19455,502,12.0,0.119999997,48625,50.0,0.270000011,2,100.0,88.0,23.76000023,Western Europe,Utrecht,COMPLETE,502,24,Nike Men's Dri-FIT Victory Golf Polo,50.0,0,2015-10-12 11:36:00,Same Day,2015,October,11,0,Sunday
TRANSFER,5,4,51.79000092,107.8899994,Late delivery,1,18,Men's Footwear,Orlando,EE. UU.,Catherine,7470,Hood,Consumer,FL,9731 Lost Creek Hollow,32808.0,4,Apparel,28.57764053,-81.44708252,Africa,Yibuti,Yibuti,7470,2016-11-27 20:44:00,47739,403,22.10000038,0.170000002,119374,129.9900055,0.479999989,1,129.9900055,107.8899994,51.79000092,East Africa,Yibuti,PENDING,403,18,Nike Men's CJ Elite 2 TD Football Cleat,129.9900055,0,2016-12-02 20:44:00,Standard Class,2016,November,27,5,Sunday
DEBIT,5,2,53.95000076,165.9900055,Late delivery,1,48,Water Sports,Medina,EE. UU.,Kathleen,4789,Richmond,Consumer,OH,1454 Blue Circuit,44256.0,7,Fan Shop,41.13618469,-81.73908234,LATAM,Santiago de Cuba,Cuba,4789,2015-05-20 17:50:00,9574,1073,34.0,0.170000002,23916,199.9900055,0.330000013,1,199.9900055,165.9900055,53.95000076,Caribbean,Santiago de Cuba,COMPLETE,1073,48,Pelican Sunstream 100 Kayak,199.9900055,0,2015-05-25 17:50:00,Second Class,2015,May,20,5,Wednesday
DEBIT,4,4,35.41999817,94.45999908,Shipping on time,0,46,Indoor/Outdoor Games,La Mesa,EE. UU.,Christopher,1750,Sanford,Consumer,CA,4542 Merry Bay,91941.0,7,Fan Shop,32.76065064,-117.0166702,LATAM,Ibiúna,Brasil,1750,2017-05-23 15:04:00,59848,1014,5.5,0.059999999,149794,49.97999954,0.379999995,2,99.95999908,94.45999908,35.41999817,South America,São Paulo,ON_HOLD,1014,46,O'Brien Men's Neoprene Life Vest,49.97999954,0,2017-05-27 15:04:00,Standard Class,2017,May,23,4,Tuesday
TRANSFER,3,4,3.779999971,94.45999908,Advance shipping,0,46,Indoor/Outdoor Games,Memphis,EE. UU.,Henry,7810,Smith,Consumer,TN,1490 Amber Forest Forest,38109.0,7,Fan Shop,35.0965271,-90.06786346,Africa,Kinshasa,República Democrática del Congo,7810,2016-11-30 11:06:00,47917,1014,5.5,0.059999999,119831,49.97999954,0.039999999,2,99.95999908,94.45999908,3.779999971,Central Africa,Kinshasa,PROCESSING,1014,46,O'Brien Men's Neoprene Life Vest,49.97999954,0,2016-12-03 11:06:00,Standard Class,2016,November,30,3,Wednesday
DEBIT,2,1,69.30000305,247.5,Late delivery,1,24,Women's Apparel,Brooklyn,EE. UU.,Carol,3031,Smith,Consumer,NY,4166 Stony Berry Alley,11214.0,5,Golf,40.64524078,-73.94316101,LATAM,Cochabamba,Bolivia,3031,2015-02-13 12:43:00,2983,502,2.5,0.01,7433,50.0,0.280000001,5,250.0,247.5,69.30000305,South America,Cochabamba,COMPLETE,502,24,Nike Men's Dri-FIT Victory Golf Polo,50.0,0,2015-02-15 12:43:00,First Class,2015,February,13,2,Friday
CASH,5,4,36.88999939,245.9600067,Late delivery,1,17,Cleats,Tustin,EE. UU.,Mary,5544,Welch,Corporate,CA,2122 Rustic Link,92780.0,4,Apparel,33.76548004,-117.8358231,USCA,Cleveland,Estados Unidos,5544,2016-08-03 00:14:00,39734,365,53.99000168,0.180000007,99126,59.99000168,0.150000006,5,299.9500122,245.9600067,36.88999939,East of USA,Ohio,CLOSED,365,17,Perfect Fitness Perfect Rip Deck,59.99000168,0,2016-08-08 00:14:00,Standard Class,2016,August,3,5,Wednesday
DEBIT,4,2,16.20000076,35.99000168,Late delivery,1,29,Shop By Sport,Huntington Station,EE. UU.,Barbara,5617,Smith,Consumer,NY,3829 Gentle Beacon Meadow,11746.0,5,Golf,40.85694122,-73.39685822,Europe,Millau,Francia,5617,2015-08-05 15:48:00,14843,627,4.0,0.100000001,37166,39.99000168,0.449999988,1,39.99000168,35.99000168,16.20000076,Western Europe,Languedoc-Rosellón-Mediodía-Pirineos,COMPLETE,627,29,Under Armour Girls' Toddler Spine Surge Runni,39.99000168,0,2015-08-09 15:48:00,Second Class,2015,August,5,4,Wednesday
DEBIT,2,4,34.20000076,95.0,Advance shipping,0,24,Women's Apparel,Caguas,Puerto Rico,Lori,11537,Phelps,Consumer,PR,5761 Stony Key,725.0,5,Golf,18.2005806,-66.37051392,Europe,Grevenbroich,Alemania,11537,2017-06-20 15:01:00,61766,502,5.0,0.050000001,154413,50.0,0.360000014,2,100.0,95.0,34.20000076,Western Europe,Renania del Norte-Westfalia,COMPLETE,502,24,Nike Men's Dri-FIT Victory Golf Polo,50.0,0,2017-06-22 15:01:00,Standard Class,2017,June,20,2,Tuesday
PAYMENT,2,2,9.819999695,111.5800018,Shipping on time,0,17,Cleats,Elmhurst,EE. UU.,Thomas,6264,Irwin,Consumer,IL,1336 Fallen Landing,60126.0,4,Apparel,41.90410233,-87.93784332,LATAM,Villahermosa,México,6264,2015-04-10 09:50:00,6811,365,8.399999619,0.07,17036,59.99000168,0.090000004,2,119.9800034,111.5800018,9.819999695,Central America,Tabasco,PENDING_PAYMENT,365,17,Perfect Fitness Perfect Rip Deck,59.99000168,0,2015-04-12 09:50:00,Second Class,2015,April,10,2,Friday
DEBIT,2,4,184.3000031,383.9599915,Advance shipping,0,9,Cardio Equipment,Caguas,Puerto Rico,Mary,5950,Smith,Consumer,PR,2901 Sunny Cloud Line,725.0,3,Footwear,18.25572205,-66.3705368,Pacific Asia,Tasikmalaya,Indonesia,5950,2016-03-16 15:09:00,30186,191,16.0,0.039999999,75446,99.98999786,0.479999989,4,399.9599915,383.9599915,184.3000031,Southeast Asia,Java Occidental,COMPLETE,191,9,Nike Men's Free 5.0+ Running Shoe,99.98999786,0,2016-03-18 15:09:00,Standard Class,2016,March,16,2,Wednesday
DEBIT,3,4,-127.9899979,159.9900055,Advance shipping,0,48,Water Sports,Caguas,Puerto Rico,Michael,11228,Trujillo,Consumer,PR,4291 Sunny Fox Mews,725.0,7,Fan Shop,18.25900269,-66.37052918,Europe,Kaunas,Lituania,11228,2017-01-12 00:21:00,50832,1073,40.0,0.200000003,127035,199.9900055,-0.800000012,1,199.9900055,159.9900055,-127.9899979,Northern Europe,Kaunas,COMPLETE,1073,48,Pelican Sunstream 100 Kayak,199.9900055,0,2017-01-15 00:21:00,Standard Class,2017,January,12,3,Thursday
CASH,0,0,72.75,242.5,Shipping on time,0,24,Women's Apparel,Caguas,Puerto Rico,Shawn,10346,Smith,Home Office,PR,4896 Silver By-pass,725.0,5,Golf,18.28491592,-66.37049866,Europe,Leipzig,Alemania,10346,2015-07-26 09:10:00,14139,502,7.5,0.029999999,35378,50.0,0.300000012,5,250.0,242.5,72.75,Western Europe,Sajonia,CLOSED,502,24,Nike Men's Dri-FIT Victory Golf Polo,50.0,0,2015-07-26 21:10:00,Same Day,2015,July,26,0,Sunday
CASH,6,4,2.150000095,18.98999977,Late delivery,1,36,Golf Balls,Caguas,Puerto Rico,Dorothy,11093,Smith,Consumer,PR,9406 Fallen Grove Pathway,725.0,6,Outdoors,18.23714256,-66.37060547,USCA,San Diego,Estados Unidos,11093,2016-06-13 14:08:00,36280,810,1.0,0.050000001,90589,19.98999977,0.109999999,1,19.98999977,18.98999977,2.150000095,West of USA ,California,CLOSED,810,36,Glove It Women's Mod Oval Golf Glove,19.98999977,0,2016-06-19 14:08:00,Standard Class,2016,June,13,6,Monday
DEBIT,4,4,53.95000076,165.9900055,Shipping on time,0,48,Water Sports,Jackson,EE. UU.,Mary,5363,Smith,Consumer,MI,6943 Misty Quail Link,49201.0,7,Fan Shop,42.16539002,-84.42758179,Pacific Asia,Ankara,Turquía,5363,2016-10-31 06:14:00,45848,1073,34.0,0.170000002,114601,199.9900055,0.330000013,1,199.9900055,165.9900055,53.95000076,West Asia,Ankara,COMPLETE,1073,48,Pelican Sunstream 100 Kayak,199.9900055,0,2016-11-04 06:14:00,Standard Class,2016,October,31,4,Monday
TRANSFER,5,4,24.75,90.0,Late delivery,1,24,Women's Apparel,Bronx,EE. UU.,Melissa,12359,Smith,Home Office,NY,5387 Iron Nook,10467.0,5,Golf,40.87416458,-73.8703537,LATAM,Toluca,México,12359,2015-02-05 17:38:00,2449,502,10.0,0.100000001,6121,50.0,0.280000001,2,100.0,90.0,24.75,Central America,México,PROCESSING,502,24,Nike Men's Dri-FIT Victory Golf Polo,50.0,0,2015-02-10 17:38:00,Standard Class,2015,February,5,5,Thursday
PAYMENT,4,4,-7.920000076,89.98999786,Shipping on time,0,9,Cardio Equipment,Los Angeles,EE. UU.,Mary,179,Rodgers,Consumer,CA,8916 Round Zephyr Ridge,90033.0,3,Footwear,38.93886566,-119.9820023,LATAM,Guadalajara,México,179,2017-03-13 21:39:00,55003,191,10.0,0.100000001,137560,99.98999786,-0.090000004,1,99.98999786,89.98999786,-7.920000076,Central America,Jalisco,PENDING_PAYMENT,191,9,Nike Men's Free 5.0+ Running Shoe,99.98999786,0,2017-03-17 21:39:00,Standard Class,2017,March,13,4,Monday
TRANSFER,2,4,-56.70000076,85.0,Advance shipping,0,24,Women's Apparel,Caguas,Puerto Rico,Johnny,828,Herrera,Consumer,PR,3914 Crystal Barn Cove,725.0,5,Golf,18.24759483,-66.02528381,Europe,Hamburgo,Alemania,828,2017-08-30 03:11:00,66596,502,15.0,0.150000006,166460,50.0,-0.670000017,2,100.0,85.0,-56.70000076,Western Europe,Hamburgo,PROCESSING,502,24,Nike Men's Dri-FIT Victory Golf Polo,50.0,0,2017-09-01 03:11:00,Standard Class,2017,August,30,2,Wednesday
CASH,6,2,82.75,227.9600067,Late delivery,1,17,Cleats,San Bernardino,EE. UU.,Virginia,4999,Green,Consumer,CA,7479 Colonial Ramp,92404.0,4,Apparel,34.12992477,-117.2789154,LATAM,Araguaína,Brasil,4999,2015-02-18 21:18:00,3350,365,12.0,0.050000001,8321,59.99000168,0.360000014,4,239.9600067,227.9600067,82.75,South America,Tocantins,CLOSED,365,17,Perfect Fitness Perfect Rip Deck,59.99000168,0,2015-02-24 21:18:00,Second Class,2015,February,18,6,Wednesday
TRANSFER,2,4,27.84000015,96.0,Advance shipping,0,24,Women's Apparel,Escondido,EE. UU.,Scott,6916,Smith,Home Office,CA,975 Green Canyon,92027.0,5,Golf,33.13356781,-117.053154,LATAM,Moa,Cuba,6916,2015-03-30 18:05:00,6081,502,4.0,0.039999999,15179,50.0,0.289999992,2,100.0,96.0,27.84000015,Caribbean,Holguín,PROCESSING,502,24,Nike Men's Dri-FIT Victory Golf Polo,50.0,0,2015-04-01 18:05:00,Standard Class,2015,March,30,2,Monday
PAYMENT,4,4,83.41999817,194.0,Shipping on time,0,24,Women's Apparel,Saginaw,EE. UU.,Juan,11503,Curry,Corporate,MI,4355 Gentle Abbey,48601.0,5,Golf,43.36036682,-84.13088989,Europe,Berlín,Alemania,11503,2017-08-21 16:41:00,66018,502,6.0,0.029999999,165007,50.0,0.430000007,4,200.0,194.0,83.41999817,Western Europe,Berlín,PAYMENT_REVIEW,502,24,Nike Men's Dri-FIT Victory Golf Polo,50.0,0,2017-08-25 16:41:00,Standard Class,2017,August,21,4,Monday
DEBIT,4,4,62.34000015,199.1699982,Shipping on time,0,17,Cleats,Wyoming,EE. UU.,Mary,4522,Dennis,Home Office,MI,8707 Shady Route,49509.0,4,Apparel,42.35873032,-83.15798187,USCA,Columbia,Estados Unidos,4522,2016-07-16 21:59:00,38563,365,40.79000092,0.170000002,96239,59.99000168,0.310000002,4,239.9600067,199.1699982,62.34000015,South of  USA ,Tennessee,ON_HOLD,365,17,Perfect Fitness Perfect Rip Deck,59.99000168,0,2016-07-20 21:59:00,Standard Class,2016,July,16,4,Saturday
DEBIT,5,2,1.940000057,96.98999786,Late delivery,1,9,Cardio Equipment,Billings,EE. UU.,Mary,4439,Smith,Consumer,MT,3176 Round Gate,59102.0,3,Footwear,45.78831101,-108.5594101,LATAM,Mixco,Guatemala,4439,2017-05-02 21:55:00,58429,191,3.0,0.029999999,146250,99.98999786,0.02,1,99.98999786,96.98999786,1.940000057,Central America,Guatemala,COMPLETE,191,9,Nike Men's Free 5.0+ Running Shoe,99.98999786,0,2017-05-07 21:55:00,Second Class,2017,May,2,5,Tuesday
DEBIT,2,1,39.29999924,109.1699982,Late delivery,1,29,Shop By Sport,Caguas,Puerto Rico,Alice,10990,Wyatt,Consumer,PR,9317 Stony Townline,725.0,5,Golf,18.21441841,-66.37052918,USCA,Charlotte,Estados Unidos,10990,2016-04-03 09:52:00,31404,627,10.80000019,0.090000004,78505,39.99000168,0.360000014,3,119.9700012,109.1699982,39.29999924,South of  USA ,Carolina del Norte,ON_HOLD,627,29,Under Armour Girls' Toddler Spine Surge Runni,39.99000168,0,2016-04-05 09:52:00,First Class,2016,April,3,2,Sunday
TRANSFER,3,2,12.32999992,42.5,Shipping canceled,0,24,Women's Apparel,Waipahu,EE. UU.,Richard,8387,Fuentes,Corporate,HI,5237 Rustic Village,96797.0,5,Golf,21.39421082,-157.9980164,Pacific Asia,Sagamihara,Japón,8387,2015-11-14 15:50:00,21762,502,7.5,0.150000006,54435,50.0,0.289999992,1,50.0,42.5,12.32999992,Eastern Asia,Kanagawa,SUSPECTED_FRAUD,502,24,Nike Men's Dri-FIT Victory Golf Polo,50.0,0,2015-11-17 15:50:00,Second Class,2015,November,14,3,Saturday
TRANSFER,5,4,61.77000046,158.3699951,Late delivery,1,17,Cleats,Caguas,Puerto Rico,Roger,7124,Baker,Consumer,PR,8830 Honey Fawn Bend,725.0,4,Apparel,18.2363205,-66.3706131,Europe,Guyancourt,Francia,7124,2017-07-11 07:49:00,63184,365,21.60000038,0.119999997,157965,59.99000168,0.389999986,3,179.9700012,158.3699951,61.77000046,Western Europe,Isla de Francia,PROCESSING,365,17,Perfect Fitness Perfect Rip Deck,59.99000168,0,2017-07-16 07:49:00,Standard Class,2017,July,11,5,Tuesday
PAYMENT,3,2,31.67000008,158.3699951,Late delivery,1,17,Cleats,Caguas,Puerto Rico,Matthew,400,Vaughan,Corporate,PR,7538 High Heights,725.0,4,Apparel,18.24760056,-66.02527618,Europe,Gronau,Alemania,400,2015-10-19 07:28:00,19957,365,21.60000038,0.119999997,49892,59.99000168,0.200000003,3,179.9700012,158.3699951,31.67000008,Western Europe,Renania del Norte-Westfalia,PENDING_PAYMENT,365,17,Perfect Fitness Perfect Rip Deck,59.99000168,0,2015-10-22 07:28:00,Second Class,2015,October,19,3,Monday
TRANSFER,5,4,89.75,203.9700012,Late delivery,1,17,Cleats,Caguas,Puerto Rico,Nathan,3393,Smith,Consumer,PR,3926 Cinder Crest,725.0,4,Apparel,18.23229218,-66.37060547,Africa,Port Harcourt,Nigeria,3393,2016-08-30 14:23:00,41624,365,35.99000168,0.150000006,103907,59.99000168,0.439999998,4,239.9600067,203.9700012,89.75,West Africa,Ríos,PENDING,365,17,Perfect Fitness Perfect Rip Deck,59.99000168,0,2016-09-04 14:23:00,Standard Class,2016,August,30,5,Tuesday
TRANSFER,2,4,103.9899979,399.980011,Advance shipping,0,45,Fishing,Caguas,Puerto Rico,Lori,3235,Baker,Home Office,PR,2395 Misty Carrefour,725.0,7,Fan Shop,18.20403862,-66.37058258,Pacific Asia,Estambul,Turquía,3235,2016-10-08 02:14:00,44261,1004,0.0,0.0,110511,399.980011,0.25999999,1,399.980011,399.980011,103.9899979,West Asia,Estambul,PENDING,1004,45,Field & Stream Sportsman 16 Gun Fire Safe,399.980011,0,2016-10-10 02:14:00,Standard Class,2016,October,8,2,Saturday
DEBIT,5,4,-102.3300018,227.4100037,Late delivery,1,46,Indoor/Outdoor Games,Fort Lauderdale,EE. UU.,Laura,3959,Shields,Consumer,FL,9095 Indian Quail Extension,33311.0,7,Fan Shop,26.15756989,-80.19480133,USCA,Newark,Estados Unidos,3959,2016-05-16 16:38:00,34369,1014,22.48999977,0.090000004,85859,49.97999954,-0.449999988,5,249.8999939,227.4100037,-102.3300018,East of USA,Delaware,ON_HOLD,1014,46,O'Brien Men's Neoprene Life Vest,49.97999954,0,2016-05-21 16:38:00,Standard Class,2016,May,16,5,Monday
DEBIT,2,1,163.3899994,379.980011,Late delivery,1,45,Fishing,Caguas,Puerto Rico,Benjamin,10807,Wilson,Consumer,PR,9882 Cotton Abbey,725.0,7,Fan Shop,18.23222351,-66.37055206,Africa,Kinshasa,República Democrática del Congo,10807,2017-01-09 08:36:00,50650,1004,20.0,0.050000001,126564,399.980011,0.430000007,1,399.980011,379.980011,163.3899994,Central Africa,Kinshasa,COMPLETE,1004,45,Field & Stream Sportsman 16 Gun Fire Safe,399.980011,0,2017-01-11 08:36:00,First Class,2017,January,9,2,Monday
DEBIT,6,4,29.5699997,118.2900009,Late delivery,1,18,Men's Footwear,Los Angeles,EE. UU.,Joyce,11558,Camacho,Consumer,CA,5951 Broad Crescent,90066.0,4,Apparel,33.95998383,-118.3873672,Europe,Wuppertal,Alemania,11558,2017-07-17 23:34:00,63640,403,11.69999981,0.090000004,159068,129.9900055,0.25,1,129.9900055,118.2900009,29.5699997,Western Europe,Renania del Norte-Westfalia,COMPLETE,403,18,Nike Men's CJ Elite 2 TD Football Cleat,129.9900055,0,2017-07-23 23:34:00,Standard Class,2017,July,17,6,Monday
DEBIT,6,4,61.72000122,125.9499969,Late delivery,1,46,Indoor/Outdoor Games,Alpharetta,EE. UU.,Mary,6696,Spencer,Corporate,GA,9726 Gentle Expressway,30022.0,7,Fan Shop,33.99850845,-84.2793808,Europe,Rome,Italia,6696,2017-06-28 18:52:00,62325,1014,23.98999977,0.159999996,155808,49.97999954,0.49000001,3,149.9400024,125.9499969,61.72000122,Southern Europe,Lacio,ON_HOLD,1014,46,O'Brien Men's Neoprene Life Vest,49.97999954,0,2017-07-04 18:52:00,Standard Class,2017,June,28,6,Wednesday
PAYMENT,2,4,13.77000046,84.44999695,Advance shipping,0,37,Electronics,Detroit,EE. UU.,Mary,11570,Kim,Home Office,MI,4730 Cinder Field,48234.0,6,Outdoors,42.43497467,-83.02230835,Europe,Tarragona,España,11570,2015-10-06 02:03:00,19051,825,11.52000046,0.119999997,47623,31.98999977,0.159999996,3,95.97000122,84.44999695,13.77000046,Southern Europe,Cataluña,PENDING_PAYMENT,825,37,Bridgestone e6 Straight Distance NFL Tennesse,31.98999977,0,2015-10-08 02:03:00,Standard Class,2015,October,6,2,Tuesday
PAYMENT,6,2,-40.49000168,52.79000092,Late delivery,1,17,Cleats,Martinsburg,EE. UU.,Mary,4750,Smith,Consumer,WV,9406 Old Lagoon Canyon,25401.0,4,Apparel,39.41230393,-78.06230927,LATAM,Santo Domingo,República Dominicana,4750,2017-03-24 22:51:00,55760,365,7.199999809,0.119999997,139443,59.99000168,-0.769999981,1,59.99000168,52.79000092,-40.49000168,Caribbean,Santo Domingo,PENDING_PAYMENT,365,17,Perfect Fitness Perfect Rip Deck,59.99000168,0,2017-03-30 22:51:00,Second Class,2017,March,24,6,Friday
DEBIT,3,2,-37.83000183,126.0899963,Late delivery,1,18,Men's Footwear,Sunnyvale,EE. UU.,Walter,444,Lambert,Corporate,CA,2638 Blue Rise Hollow,94086.0,4,Apparel,37.37277985,-122.0325623,LATAM,Mexico City,México,444,2015-02-14 23:24:00,3082,403,3.900000095,0.029999999,7658,129.9900055,-0.300000012,1,129.9900055,126.0899963,-37.83000183,Central America,Distrito Federal,COMPLETE,403,18,Nike Men's CJ Elite 2 TD Football Cleat,129.9900055,0,2015-02-17 23:24:00,Second Class,2015,February,14,3,Saturday
PAYMENT,4,2,28.04999924,107.8899994,Late delivery,1,18,Men's Footwear,Miami,EE. UU.,Sarah,7722,Freeman,Consumer,FL,826 Tawny Embers Expressway,33142.0,4,Apparel,25.80413055,-80.2290802,USCA,Cary,Estados Unidos,7722,2016-04-12 03:43:00,32003,403,22.10000038,0.170000002,80005,129.9900055,0.25999999,1,129.9900055,107.8899994,28.04999924,South of  USA ,Carolina del Norte,PENDING_PAYMENT,403,18,Nike Men's CJ Elite 2 TD Football Cleat,129.9900055,0,2016-04-16 03:43:00,Second Class,2016,April,12,4,Tuesday
DEBIT,5,4,74.25,198.0,Late delivery,1,24,Women's Apparel,Waukegan,EE. UU.,Mary,4038,Smith,Consumer,IL,5961 Velvet Creek Cape,60085.0,5,Golf,42.365345,-87.83589935,Africa,Abidjan,Costa de Marfil,4038,2017-01-08 18:14:00,50609,502,2.0,0.01,126480,50.0,0.379999995,4,200.0,198.0,74.25,West Africa,Lagunes,COMPLETE,502,24,Nike Men's Dri-FIT Victory Golf Polo,50.0,0,2017-01-13 18:14:00,Standard Class,2017,January,8,5,Sunday
TRANSFER,5,2,12.47999954,124.7900009,Late delivery,1,18,Men's Footwear,Orlando,EE. UU.,Mary,1705,Smith,Consumer,FL,1102 Pleasant Maze,32825.0,4,Apparel,28.55625916,-81.27587128,USCA,San Francisco,Estados Unidos,1705,2016-06-03 20:49:00,35614,403,5.199999809,0.039999999,88935,129.9900055,0.100000001,1,129.9900055,124.7900009,12.47999954,West of USA ,California,PROCESSING,403,18,Nike Men's CJ Elite 2 TD Football Cleat,129.9900055,0,2016-06-08 20:49:00,Second Class,2016,June,3,5,Friday
PAYMENT,0,0,45.61999893,134.9799957,Shipping on time,0,17,Cleats,Newburgh,EE. UU.,Mary,2429,Roberts,Home Office,NY,4791 Heather Cider Orchard,12550.0,4,Apparel,41.50205994,-74.01177216,Europe,Meyzieu,Francia,2429,2017-09-09 07:44:00,67294,365,44.99000168,0.25,168178,59.99000168,0.340000004,3,179.9700012,134.9799957,45.61999893,Western Europe,Auvernia-Ródano-Alpes,PENDING_PAYMENT,365,17,Perfect Fitness Perfect Rip Deck,59.99000168,0,2017-09-09 19:44:00,Same Day,2017,September,9,0,Saturday
